{"FI": [{"id": 247, "name": "CANOVA", "city": "FIRENZE", "address": "VIA CANOVA, 164/8", "phone": "0557 331 896", "zip": "50143 - Firenze;50142 - Firenze", "province": "FI", "company": "ESSELUNGA", "latitude": 43.7698712, "longitude": 11.2555757}, {"id": 328, "name": "DE AMICIS", "city": "FIRENZE", "address": "VIALE DE AMICIS 89/B", "phone": "055 604 442", "zip": "50131 - Firenze;50132 - Firenze;50133 - Firenze;50135 - Firenze;50136 - Firenze;50137 - Firenze", "province": "FI", "company": "ESSELUNGA", "latitude": 43.7698712, "longitude": 11.2555757}, {"id": 245, "name": "GALLIANO", "city": "FIRENZE", "address": "VIA GALLIANO, 136", "phone": "055 362 121", "zip": "50144 - Firenze;50127 - Firenze", "province": "FI", "company": "ESSELUNGA", "latitude": 43.7698712, "longitude": 11.2555757}, {"id": 292, "name": "GALLUZZO", "city": "FIRENZE", "address": "VIA SENESE, 194/G", "phone": "0552 322 545", "zip": "50124 - Firenze;50125 - Firenze", "province": "FI", "company": "ESSELUNGA", "latitude": 43.7698712, "longitude": 11.2555757}, {"id": 252, "name": "GIGNORO", "city": "FIRENZE", "address": "VIA DEL GIGNORO (ANG. VIA CALASSO, 19)", "phone": "055 671 407", "zip": "50137 - Firenze;50136 - Firenze;50135 - Firenze;50126 - Firenze", "province": "FI", "company": "ESSELUNGA", "latitude": 43.7698712, "longitude": 11.2555757}, {"id": 253, "name": "MASACCIO", "city": "FIRENZE", "address": "VIA MASACCIO, 274/276", "phone": "055 573 348", "zip": "50136 - Firenze;50133 - Firenze;50132 - Firenze;50131 - Firenze;50129 - Firenze;50122 - Firenze;50121 - Firenze", "province": "FI", "company": "ESSELUNGA", "latitude": 43.7698712, "longitude": 11.2555757}, {"id": 250, "name": "MILANESI", "city": "FIRENZE", "address": "VIA MILANESI, 32/34", "phone": "055 489 265", "zip": "50141 - Firenze;50139 - Firenze;50134 - Firenze;50129 - Firenze", "province": "FI", "company": "ESSELUNGA", "latitude": 43.7698712, "longitude": 11.2555757}, {"id": 243, "name": "NOVOLI", "city": "FIRENZE", "address": "VIA DI NOVOLI, 61", "phone": "055 433 908", "zip": "50145 - Firenze;50144 - Firenze;50141 - Firenze;50127 - Firenze", "province": "FI", "company": "ESSELUNGA", "latitude": 43.7698712, "longitude": 11.2555757}, {"id": 246, "name": "PISANA", "city": "FIRENZE", "address": "VIA PISANA, 130/132", "phone": "055 706 556", "zip": "50143 - Firenze;50125 - Firenze;50124 - Firenze;50123 - Firenze;50122 - Firenze", "province": "FI", "company": "ESSELUNGA", "latitude": 43.7698712, "longitude": 11.2555757}, {"province": "FI", "extra": "https://s1b.altuoservizio.conad.it/conadshopstorefront/conad/it/store-finder/?codiceAnacan=008635&extra=true", "storetype": "", "city": " Firenze", "selected": "true", "id": "008635", "latitude": 43.7711649549, "website": "null.008635.html", "coop": "CDT", "opening": "Adesso Aperto", "company": "CONAD", "hours": "08:00 - 21:00", "address": "Via Pietrapiana 42, 50121  Firenze", "data": "Conad city", "distance": "0.63 km", "name": "Conad city", "cap": "50121", "longitude": 11.2632884095, "time": "1 min", "order": "https://s1a.altuoservizio.conad.it/conadshopstorefront/conad/it/store-finder/?codiceAnacan=008635"}, {"province": "FI", "storetype": "", "city": " Firenze", "selected": "false", "id": "009413", "latitude": 43.7768243, "website": "null.009413.html", "coop": "CDT", "opening": "Adesso Aperto", "company": "CONAD", "hours": "07:30 - 21:00", "address": "Via Luigi Alamanni 2, 50123  Firenze", "data": "Sapori & dintorni conad", "distance": "1.11 km", "name": "Sapori & dintorni conad", "cap": "50123", "longitude": 11.2464108, "time": "2 min", "order": "https://s1a.altuoservizio.conad.it/conadshopstorefront/conad/it/store-finder/?codiceAnacan=009413"}, {"province": "FI", "extra": "https://s1b.altuoservizio.conad.it/conadshopstorefront/conad/it/store-finder/?codiceAnacan=003802&extra=true", "storetype": "", "city": " Firenze", "selected": "false", "id": "003802", "latitude": 43.7703178078, "website": "null.003802.html", "coop": "CDT", "opening": "Adesso Aperto", "company": "CONAD", "hours": "07:30 - 20:30", "address": "Via Scipione Ammirato 94, 50136  Firenze", "data": "Conad city", "distance": "1.69 km", "name": "Conad city", "cap": "50136", "longitude": 11.2768285442, "time": "3 min", "order": "https://s1a.altuoservizio.conad.it/conadshopstorefront/conad/it/store-finder/?codiceAnacan=003802"}, {"province": "FI", "storetype": "", "city": " Firenze", "selected": "false", "id": "000822", "latitude": 43.79343417, "website": "null.000822.html", "coop": "CDT", "opening": "Adesso Aperto", "company": "CONAD", "hours": "07:45 - 20:30", "address": "Via Giovan Filippo Mariti 132, 50136  Firenze", "data": "Conad city", "distance": "3.05 km", "name": "Conad city", "cap": "50136", "longitude": 11.23706956, "time": "6 min", "order": "https://s1a.altuoservizio.conad.it/conadshopstorefront/conad/it/store-finder/?codiceAnacan=000822"}, {"province": "FI", "storetype": "", "city": " Firenze", "selected": "false", "id": "008636", "latitude": 43.7962847762, "website": "null.008636.html", "coop": "CDT", "opening": "Adesso Aperto", "company": "CONAD", "hours": "08:00 - 20:30", "address": "Piazza Dalmazia 12/14, 50141  Firenze", "data": "Conad", "distance": "3.23 km", "name": "Conad", "cap": "50141", "longitude": 11.240086304, "time": "6 min", "order": "https://s1a.altuoservizio.conad.it/conadshopstorefront/conad/it/store-finder/?codiceAnacan=008636"}, {"province": "FI", "extra": "https://s1b.altuoservizio.conad.it/conadshopstorefront/conad/it/store-finder/?codiceAnacan=006324&extra=true", "storetype": "", "city": " Firenze", "selected": "false", "id": "006324", "latitude": 43.7744863348, "website": "null.006324.html", "coop": "CDT", "opening": "Adesso Aperto", "company": "CONAD", "hours": "08:00 - 20:00", "address": "Via Ferdinando Martini 14, 50135  Firenze", "data": "Conad city", "distance": "3.29 km", "name": "Conad city", "cap": "50135", "longitude": 11.2962392359, "time": "6 min", "order": "https://s1a.altuoservizio.conad.it/conadshopstorefront/conad/it/store-finder/?codiceAnacan=006324"}, {"province": "FI", "extra": "https://s1b.altuoservizio.conad.it/conadshopstorefront/conad/it/store-finder/?codiceAnacan=003395&extra=true", "storetype": "", "city": " Firenze", "selected": "false", "id": "003395", "shipment": "https://s1c.altuoservizio.conad.it/conadshopstorefront/conad/it/store-finder/?codiceAnacan=003395", "latitude": 43.75995487, "website": "null.003395.html", "coop": "CDT", "opening": "Adesso Aperto", "company": "CONAD", "hours": "08:00 - 20:30", "address": "Via Kyoto 24/30, 50126  Firenze", "data": "Conad city", "distance": "3.37 km", "name": "Conad city", "cap": "50126", "longitude": 11.29566268, "time": "6 min", "order": "https://s1a.altuoservizio.conad.it/conadshopstorefront/conad/it/store-finder/?codiceAnacan=003395"}, {"province": "FI", "extra": "https://s1b.altuoservizio.conad.it/conadshopstorefront/conad/it/store-finder/?codiceAnacan=003391&extra=true", "storetype": "", "city": " Firenze", "selected": "false", "id": "003391", "shipment": "https://s1c.altuoservizio.conad.it/conadshopstorefront/conad/it/store-finder/?codiceAnacan=003391", "latitude": 43.76804861, "website": "null.003391.html", "coop": "CDT", "opening": "Adesso Aperto", "company": "CONAD", "hours": "08:00 - 20:30", "address": "Via Rocca Tedalda 49, 50136  Firenze", "data": "Conad city", "distance": "3.96 km", "name": "Conad city", "cap": "50136", "longitude": 11.30503458, "time": "7 min", "order": "https://s1a.altuoservizio.conad.it/conadshopstorefront/conad/it/store-finder/?codiceAnacan=003391"}, {"province": "FI", "extra": "https://s1b.altuoservizio.conad.it/conadshopstorefront/conad/it/store-finder/?codiceAnacan=006507&extra=true", "storetype": "", "city": " Firenze", "selected": "false", "id": "006507", "latitude": 43.794610415, "website": "null.006507.html", "coop": "CDT", "opening": "Adesso Aperto", "company": "CONAD", "hours": "08:00 - 21:00", "address": "Via Pistoiese Ang. Via Del Pesciolino Snc, 50145  Firenze", "data": "Conad superstore", "distance": "5.66 km", "name": "Conad superstore", "cap": "50145", "longitude": 11.1944302025, "time": "11 min", "order": "https://s1a.altuoservizio.conad.it/conadshopstorefront/conad/it/store-finder/?codiceAnacan=006507"}, {"province": "FI", "storetype": "", "city": " Scandicci", "selected": "false", "id": "000843", "latitude": 43.7545452, "website": "null.000843.html", "coop": "CDT", "opening": "Adesso Aperto", "company": "CONAD", "hours": "07:30 - 20:00", "address": "Via S.bartolo In Tuto 35, 50018  Scandicci", "data": "Conad city", "distance": "6.05 km", "name": "Conad city", "cap": "50018", "longitude": 11.18343913, "time": "12 min", "order": "https://s1a.altuoservizio.conad.it/conadshopstorefront/conad/it/store-finder/?codiceAnacan=000843"}, {"province": "FI", "extra": "https://s1b.altuoservizio.conad.it/conadshopstorefront/conad/it/store-finder/?codiceAnacan=009005&extra=true", "storetype": "", "city": " Calenzano", "selected": "false", "id": "009005", "latitude": 43.8607588, "website": "null.009005.html", "coop": "CDT", "opening": "Adesso Aperto", "company": "CONAD", "hours": "07:30 - 20:30", "address": "Via Don Minzoni 13, 50041  Calenzano", "data": "Conad", "distance": "12.59 km", "name": "Conad", "cap": "50041", "longitude": 11.1628287, "time": "25 min", "order": "https://s1a.altuoservizio.conad.it/conadshopstorefront/conad/it/store-finder/?codiceAnacan=009005"}, {"province": "FI", "extra": "https://s1b.altuoservizio.conad.it/conadshopstorefront/conad/it/store-finder/?codiceAnacan=000816&extra=true", "storetype": "", "city": " Prato", "selected": "false", "id": "000816", "latitude": 43.86399613, "website": "null.000816.html", "coop": "CDT", "opening": "Adesso Aperto", "company": "CONAD", "hours": "08:00 - 21:00", "address": "Via Giuseppe Catani 28/b, 59100  Prato", "data": "Conad", "distance": "15.47 km", "name": "Conad", "cap": "59100", "longitude": 11.11434846, "time": "30 min", "order": "https://s1a.altuoservizio.conad.it/conadshopstorefront/conad/it/store-finder/?codiceAnacan=000816"}, {"province": "FI", "extra": "https://s1b.altuoservizio.conad.it/conadshopstorefront/conad/it/store-finder/?codiceAnacan=003800&extra=true", "storetype": "", "city": " Prato", "selected": "false", "id": "003800", "latitude": 43.8475679411, "website": "null.003800.html", "coop": "CDT", "opening": "Adesso Aperto", "company": "CONAD", "hours": "08:00 - 21:00", "address": "Via Roma Snc, 59100  Prato", "data": "Conad", "distance": "16.94 km", "name": "Conad", "cap": "59100", "longitude": 11.074632109, "time": "33 min", "order": "https://s1a.altuoservizio.conad.it/conadshopstorefront/conad/it/store-finder/?codiceAnacan=003800"}, {"province": "FI", "storetype": "", "city": " Prato", "selected": "false", "id": "006502", "latitude": 43.8870141521, "website": "null.006502.html", "coop": "CDT", "opening": "Adesso Aperto", "company": "CONAD", "hours": "07:30 - 20:00", "address": "Via Luigi Gaspare Spontini 29/31, 59100  Prato", "data": "Conad city", "distance": "19.72 km", "name": "Conad city", "cap": "59100", "longitude": 11.0716768174, "time": "39 min", "order": "https://s1a.altuoservizio.conad.it/conadshopstorefront/conad/it/store-finder/?codiceAnacan=006502"}, {"province": "FI", "storetype": "", "city": " Prato", "selected": "false", "id": "003392", "latitude": 43.90798678, "website": "null.003392.html", "coop": "CDT", "opening": "Adesso Aperto", "company": "CONAD", "hours": "07:30 - 20:30", "address": "Via VII Marzo 15, 59100  Prato", "data": "Conad", "distance": "20.25 km", "name": "Conad", "cap": "59100", "longitude": 11.09184404, "time": "40 min", "order": "https://s1a.altuoservizio.conad.it/conadshopstorefront/conad/it/store-finder/?codiceAnacan=003392"}, {"province": "FI", "extra": "https://s1b.altuoservizio.conad.it/conadshopstorefront/conad/it/store-finder/?codiceAnacan=004839&extra=true", "storetype": "", "city": " Prato", "selected": "false", "id": "004839", "latitude": 43.8986587851, "website": "null.004839.html", "coop": "CDT", "opening": "Adesso Aperto", "company": "CONAD", "parafarmacia": "true", "address": "Via Anna Kuliscioff 3, 59100  Prato", "data": "Conad superstore", "distance": "20.65 km", "name": "Conad superstore", "cap": "59100", "hours": "07:30 - 21:00", "longitude": 11.0708709341, "time": "41 min", "order": "https://s1a.altuoservizio.conad.it/conadshopstorefront/conad/it/store-finder/?codiceAnacan=004839"}, {"province": "FI", "extra": "https://s1b.altuoservizio.conad.it/conadshopstorefront/conad/it/store-finder/?codiceAnacan=006827&extra=true", "storetype": "", "city": " Borgo San Lorenzo", "selected": "false", "id": "006827", "latitude": 43.9568523691, "website": "null.006827.html", "coop": "CDT", "opening": "Adesso Aperto", "company": "CONAD", "hours": "08:00 - 21:00", "address": "Viale Giovanni XXIII 47, 50032  Borgo San Lorenzo", "data": "Conad superstore", "distance": "22.83 km", "name": "Conad superstore", "cap": "50032", "longitude": 11.3722466212, "time": "45 min", "order": "https://s1a.altuoservizio.conad.it/conadshopstorefront/conad/it/store-finder/?codiceAnacan=006827"}, {"province": "FI", "storetype": "", "city": " Quarrata", "selected": "false", "id": "000832", "latitude": 43.84770709, "website": "null.000832.html", "coop": "CDT", "opening": "Adesso Aperto", "company": "CONAD", "hours": "07:30 - 20:00", "address": "Via Roma 39, 51039  Quarrata", "data": "Conad city", "distance": "23.86 km", "name": "Conad city", "cap": "51039", "longitude": 10.97899621, "time": "47 min", "order": "https://s1a.altuoservizio.conad.it/conadshopstorefront/conad/it/store-finder/?codiceAnacan=000832"}, {"province": "FI", "extra": "https://s1b.altuoservizio.conad.it/conadshopstorefront/conad/it/store-finder/?codiceAnacan=009000&extra=true", "storetype": "", "city": " Figline E Incisa Valdarno", "selected": "false", "id": "009000", "latitude": 43.620885, "website": "null.009000.html", "coop": "CDT", "opening": "Adesso Aperto", "company": "CONAD", "hours": "08:00 - 21:00", "address": "Via Roma 1/9, 50063  Figline E Incisa Valdarno", "data": "Conad city", "distance": "23.99 km", "name": "Conad city", "cap": "50063", "longitude": 11.4718616, "time": "47 min", "order": "https://s1a.altuoservizio.conad.it/conadshopstorefront/conad/it/store-finder/?codiceAnacan=009000"}], "MB": [{"id": 242, "name": "MONZA BUONARROTI", "city": "MONZA", "address": "VIA BUONARROTI", "phone": "0392 847 818", "zip": "20900 - Monza", "province": "MB", "company": "ESSELUNGA", "latitude": 45.5834418, "longitude": 9.2735257}, {"id": 241, "name": "MONZA SAN FRUTTUOSO", "city": "MONZA", "address": "VIA BREMBO, 4 - LOCALITA' SAN FRUTTUOSO", "phone": "0392 141 257", "zip": "20900 - Monza", "province": "MB", "company": "ESSELUNGA", "latitude": 45.5834418, "longitude": 9.2735257}], "PV": [{"id": 273, "name": "PAVIA", "city": "PAVIA", "address": "VIA FABIO FILZI, 6 - ALLA MINERVA", "phone": "038 226 210", "zip": "27010 - San Genesio ed Uniti", "province": "PV", "company": "ESSELUNGA", "latitude": 45.036854649999995, "longitude": 9.137825082826026}, {"id": 271, "name": "PAVIA", "city": "PAVIA", "address": "VIA FABIO FILZI, 6 - ALLA MINERVA", "phone": "038 226 210", "zip": "27100 - Pavia", "province": "PV", "company": "ESSELUNGA", "latitude": 45.036854649999995, "longitude": 9.137825082826026}, {"id": 274, "name": "PAVIA", "city": "PAVIA", "address": "VIA FABIO FILZI, 6 - ALLA MINERVA", "phone": "038 226 210", "zip": "27010 - Borgarello", "province": "PV", "company": "ESSELUNGA", "latitude": 45.036854649999995, "longitude": 9.137825082826026}, {"id": 272, "name": "PAVIA", "city": "PAVIA", "address": "VIA FABIO FILZI, 6 - ALLA MINERVA", "phone": "038 226 210", "zip": "27012 - Certosa di Pavia", "province": "PV", "company": "ESSELUNGA", "latitude": 45.036854649999995, "longitude": 9.137825082826026}], "VA": [{"id": 306, "name": "MASNAGO", "city": "VARESE", "address": "VIA CARACCIOLO (ANG. VIA CAMPILUNGHI)", "phone": "0332 228 391", "zip": "21100 - Varese", "province": "VA", "company": "ESSELUNGA", "latitude": 45.83971285, "longitude": 8.754157594917665}, {"id": 305, "name": "VARESE", "city": "VARESE", "address": "VIALE BORRI (ANG. VIA COLONNA)", "phone": "0332 265 260", "zip": "21100 - Varese", "province": "VA", "company": "ESSELUNGA", "latitude": 45.83971285, "longitude": 8.754157594917665}], "MI": [{"id": 290, "name": "ROZZANO", "city": "ROZZANO", "address": "VIA MANZONI, 5", "phone": "0257 503 568", "zip": "20080 - Basiglio", "province": "MI", "company": "ESSELUNGA", "latitude": 45.3832366, "longitude": 9.1541309}, {"id": 238, "name": "SUZZANI", "city": "MILANO", "address": "VIALE SUZZANI, 221", "phone": "0266 114 468", "zip": "20091 - Bresso", "province": "MI", "company": "ESSELUNGA", "latitude": 45.4668, "longitude": 9.1905}, {"id": 240, "name": "FELTRE", "city": "MILANO", "address": "VIA FELTRE, 40", "phone": "0226 415 040", "zip": "20090 - Segrate", "province": "MI", "company": "ESSELUNGA", "latitude": 45.4668, "longitude": 9.1905}, {"id": 239, "name": "RUBATTINO", "city": "MILANO", "address": "VIA PITTERI, 84", "phone": "0221 597 394", "zip": "20090 - Segrate", "province": "MI", "company": "ESSELUNGA", "latitude": 45.4668, "longitude": 9.1905}, {"id": 412, "name": "SESTO SAN GIOVANNI", "city": "SESTO SAN GIOVANNI", "address": "VIA ROVANI ANG. VIA N. SAURO", "phone": "0226 222 144", "zip": "20099 - Sesto San Giovanni", "province": "MI", "company": "ESSELUNGA", "latitude": 45.5357218, "longitude": 9.2376549}, {"id": 237, "name": "LORENTEGGIO", "city": "MILANO", "address": "VIA LORENTEGGIO, 219", "phone": "0248 376 549", "zip": "20094 - Corsico", "province": "MI", "company": "ESSELUNGA", "latitude": 45.4668, "longitude": 9.1905}, {"id": 286, "name": "ROZZANO", "city": "ROZZANO", "address": "VIA MANZONI, 5", "phone": "0257 503 568", "zip": "20090 - Opera", "province": "MI", "company": "ESSELUNGA", "latitude": 45.3832366, "longitude": 9.1541309}, {"id": 288, "name": "ROZZANO", "city": "ROZZANO", "address": "VIA MANZONI, 5", "phone": "0257 503 568", "zip": "20090 - Assago", "province": "MI", "company": "ESSELUNGA", "latitude": 45.3832366, "longitude": 9.1541309}, {"id": 281, "name": "ADRIANO", "city": "MILANO", "address": "VIA ADRIANO, 81", "phone": "0227 206 861", "zip": "20127 - Milano;20128 - Milano;20132 - Milano", "province": "MI", "company": "ESSELUNGA", "latitude": 45.4668, "longitude": 9.1905}, {"id": 275, "name": "AFFORI", "city": "MILANO", "address": "VIA PELLEGRINO ROSSI, 63", "phone": "0266 200 332", "zip": "20161 - Milano;20162 - Milano;20148 - Milano", "province": "MI", "company": "ESSELUNGA", "latitude": 45.4668, "longitude": 9.1905}, {"id": 408, "name": "FAMAGOSTA", "city": "MILANO", "address": "VIALE FAMAGOSTA, 56", "phone": "0284 892 312 ", "zip": "20142 - Milano;20141 - Milano;20143 - Milano;20136 - Milano", "province": "MI", "company": "ESSELUNGA", "latitude": 45.4668, "longitude": 9.1905}, {"id": 211, "name": "FELTRE", "city": "MILANO", "address": "VIA FELTRE, 40", "phone": "0226 415 040", "zip": "20134 - Milano;20132 - Milano;20131 - Milano;20128 - Milano;20127 - Milano", "province": "MI", "company": "ESSELUNGA", "latitude": 45.4668, "longitude": 9.1905}, {"id": 161, "name": "FORZE ARMATE", "city": "MILANO", "address": "VIA DELLE FORZE ARMATE (ANG. VIA VAL DEVERO)", "phone": "0248 929 217", "zip": "20153 - Milano;20152 - Milano;20147 - Milano", "province": "MI", "company": "ESSELUNGA", "latitude": 45.4668, "longitude": 9.1905}, {"id": 143, "name": "JENNER", "city": "MILANO", "address": "VIA LEGNONE (ANG. VIALE JENNER)", "phone": "0269 015 604", "zip": "20161 - Milano;20159 - Milano;20158 - Milano", "province": "MI", "company": "ESSELUNGA", "latitude": 45.4668, "longitude": 9.1905}, {"id": 162, "name": "LORENTEGGIO", "city": "MILANO", "address": "VIA LORENTEGGIO, 219", "phone": "0248 376 549", "zip": "20152 - Milano;20147 - Milano;20146 - Milano;20143 - Milano", "province": "MI", "company": "ESSELUNGA", "latitude": 45.4668, "longitude": 9.1905}, {"id": 155, "name": "LOSANNA", "city": "MILANO", "address": "VIA LOSANNA, 20/22", "phone": "02 34 691 088", "zip": "20155 - Milano;20154 - Milano;20149 - Milano;20145 - Milano", "province": "MI", "company": "ESSELUNGA", "latitude": 45.4668, "longitude": 9.1905}, {"id": 149, "name": "MAC MAHON", "city": "MILANO", "address": "VIA MAC MAHON, 128", "phone": "0239 214 308", "zip": "20157 - Milano;20156 - Milano;20155 - Milano;20154 - Milano", "province": "MI", "company": "ESSELUNGA", "latitude": 45.4668, "longitude": 9.1905}, {"id": 142, "name": "MILANO CERTOSA", "city": "MILANO", "address": "VIA PALIZZI, 69", "phone": "0233 200 162", "zip": "20161 - Milano;20157 - Milano;20156 - Milano;20155 - Milano;20154 - Milano;20151 - Milano;20149 - Milano;20145 - Milano", "province": "MI", "company": "ESSELUNGA", "latitude": 45.4668, "longitude": 9.1905}, {"id": 189, "name": "MISSAGLIA", "city": "MILANO", "address": "VIA DEI MISSAGLIA, 61/A", "phone": "0289 301 043", "zip": "20143 - Milano;20142 - Milano;20141 - Milano", "province": "MI", "company": "ESSELUNGA", "latitude": 45.4668, "longitude": 9.1905}, {"id": 170, "name": "MONTE ROSA", "city": "MILANO", "address": "VIA MONTE ROSA (ANG. VIA DOMENICHINO)", "phone": "0248 005 955", "zip": "20149 - Milano;20148 - Milano;20146 - Milano;20145 - Milano", "province": "MI", "company": "ESSELUNGA", "latitude": 45.4668, "longitude": 9.1905}, {"id": 160, "name": "NOVARA", "city": "MILANO", "address": "VIA NOVARA, 86", "phone": "0248 703 052", "zip": "20153 - Milano;20151 - Milano;20148 - Milano;20147 - Milano", "province": "MI", "company": "ESSELUNGA", "latitude": 45.4668, "longitude": 9.1905}, {"id": 198, "name": "OVIDIO", "city": "MILANO", "address": "VIA TOSCOLANO (ANG. PIAZZA OVIDIO)", "phone": "02 744 029", "zip": "20139 - Milano;20138 - Milano;20137 - Milano;20134 - Milano;20133 - Milano", "province": "MI", "company": "ESSELUNGA", "latitude": 45.4668, "longitude": 9.1905}, {"id": 278, "name": "PAPINIANO", "city": "MILANO", "address": "VIALE PAPINIANO, 27", "phone": "024 987 674", "zip": "20122 - Milano;20123 - Milano;20144 - Milano", "province": "MI", "company": "ESSELUNGA", "latitude": 45.4668, "longitude": 9.1905}, {"id": 191, "name": "PEZZOTTI", "city": "MILANO", "address": "VIA PEZZOTTI (ANG.VIA S.AMPELLIO)", "phone": "028 435 791", "zip": "20142 - Milano;20141 - Milano;20136 - Milano", "province": "MI", "company": "ESSELUNGA", "latitude": 45.4668, "longitude": 9.1905}, {"id": 208, "name": "PIAVE", "city": "MILANO", "address": "VIALE PIAVE, 38/B", "phone": "022 047 871", "zip": "20135 - Milano;20133 - Milano;20131 - Milano;20129 - Milano;20124 - Milano;20122 - Milano;20121 - Milano", "province": "MI", "company": "ESSELUNGA", "latitude": 45.4668, "longitude": 9.1905}, {"id": 303, "name": "PORTA NUOVA", "city": "MILANO", "address": "VIALE DON LUIGI STURZO, 13", "phone": "0265 560 991", "zip": "20158 - Milano;20121 - Milano;20124 - Milano;20154 - Milano;20159 - Milano", "province": "MI", "company": "ESSELUNGA", "latitude": 45.4668, "longitude": 9.1905}, {"id": 200, "name": "PORTA VITTORIA", "city": "MILANO", "address": "via Giovanni Cena, 8", "phone": "0254 019 273", "zip": "20137 - Milano;20135 - Milano;20133 - Milano;20129 - Milano;20122 - Milano", "province": "MI", "company": "ESSELUNGA", "latitude": 45.4668, "longitude": 9.1905}, {"id": 193, "name": "RIPAMONTI", "city": "MILANO", "address": "VIA CARLO DE ANGELI, 1", "phone": "0256 816 062", "zip": "20141 - Milano;20139 - Milano;20136 - Milano;20135 - Milano;20122 - Milano", "province": "MI", "company": "ESSELUNGA"}, {"id": 285, "name": "ROZZANO", "city": "ROZZANO", "address": "VIA MANZONI, 5", "phone": "0257 503 568", "zip": "20142 - Milano", "province": "MI", "company": "ESSELUNGA", "latitude": 45.3832366, "longitude": 9.1541309}, {"id": 209, "name": "RUBATTINO", "city": "MILANO", "address": "VIA PITTERI, 84", "phone": "0221 597 394", "zip": "20134 - Milano;20133 - Milano;20131 - Milano;20129 - Milano", "province": "MI", "company": "ESSELUNGA"}, {"id": 295, "name": "SEGRATE", "city": "SEGRATE", "address": "VIA OLGIA 4, ANG. S.S. CASSANESE", "phone": "0226 920 276", "zip": "20090 - Milano", "province": "MI", "company": "ESSELUNGA", "latitude": 45.4907352, "longitude": 9.2948204}, {"id": 296, "name": "SOLARI", "city": "MILANO", "address": "VIA SOLARI, 29", "phone": "0247 710 084", "zip": "20123 - Milano;20143 - Milano;20144 - Milano;20146 - Milano", "province": "MI", "company": "ESSELUNGA", "latitude": 45.4668, "longitude": 9.1905}, {"id": 141, "name": "SUZZANI", "city": "MILANO", "address": "VIALE SUZZANI, 221", "phone": "0266 114 468", "zip": "20162 - Milano;20159 - Milano;20126 - Milano;20125 - Milano", "province": "MI", "company": "ESSELUNGA"}, {"id": 196, "name": "UMBRIA", "city": "MILANO", "address": "VIALE UMBRIA, 28", "phone": "0254 121 268", "zip": "20139 - Milano;20137 - Milano;20135 - Milano;20133 - Milano;20122 - Milano", "province": "MI", "company": "ESSELUNGA", "latitude": 45.4668, "longitude": 9.1905}, {"id": 164, "name": "VIGLIANI", "city": "MILANO", "address": "VIALE VIGLIANI, 59", "phone": "02 435 837", "zip": "20151 - Milano;20149 - Milano;20148 - Milano;20145 - Milano", "province": "MI", "company": "ESSELUNGA"}, {"id": 168, "name": "WASHINGTON", "city": "MILANO", "address": "VIA WASHINGTON,53", "phone": "0248 102 631", "zip": "20149 - Milano;20146 - Milano;20145 - Milano;20144 - Milano;20123 - Milano", "province": "MI", "company": "ESSELUNGA", "latitude": 45.4668, "longitude": 9.1905}, {"id": 140, "name": "ZARA", "city": "MILANO", "address": "VIALE ZARA, 123", "phone": "0269 007 877", "zip": "20162 - Milano;20159 - Milano;20125 - Milano;20124 - Milano", "province": "MI", "company": "ESSELUNGA", "latitude": 45.4668, "longitude": 9.1905}, {"id": 284, "name": "ROZZANO", "city": "ROZZANO", "address": "VIA MANZONI, 5", "phone": "0257 503 568", "zip": "20089 - Rozzano", "province": "MI", "company": "ESSELUNGA", "latitude": 45.3832366, "longitude": 9.1541309}, {"id": 287, "name": "ROZZANO", "city": "ROZZANO", "address": "VIA MANZONI, 5", "phone": "0257 503 568", "zip": "20090 - Pieve Emanuele", "province": "MI", "company": "ESSELUNGA", "latitude": 45.3832366, "longitude": 9.1541309}], "VR": [{"id": 400, "name": "VERONA", "city": "VERONA", "address": "CORSO MILANO, 100", "phone": "045 563 630", "zip": "37138 - Verona;37139 - Verona;37121 - Verona;37122 - Verona;37123 - Verona;37124 - Verona;37126 - Verona;37129 - Verona", "province": "VR", "company": "ESSELUNGA", "latitude": 45.4384958, "longitude": 10.9924122}], "BO": [{"id": 307, "name": "BOLOGNA SAN VITALE", "city": "BOLOGNA", "address": "VIA GUELFA (ANG. VIA LENIN) - LOCALITA' SAN VITALE", "phone": "0516 010 727", "zip": "40124 - Bologna;40125 - Bologna;40126 - Bologna;40127 - Bologna;40128 - Bologna;40136 - Bologna;40137 - Bologna;40138 - Bologna;40139 - Bologna;40141 - Bologna", "province": "BO", "company": "ESSELUNGA", "latitude": 44.4936714, "longitude": 11.3430347}, {"id": 317, "name": "BOLOGNA SANTA VIOLA", "city": "BOLOGNA", "address": "VIA EMILIA PONENTE, 72 ", "phone": "051 310 781", "zip": "40121 - Bologna;40122 - Bologna;40123 - Bologna;40128 - Bologna;40129 - Bologna;40131 - Bologna;40132 - Bologna;40133 - Bologna;40134 - Bologna;40135 - Bologna;40136 - Bologna", "province": "BO", "company": "ESSELUNGA", "latitude": 44.4936714, "longitude": 11.3430347}], "FR": [{"province": "FR", "storetype": "", "city": " Frosinone", "selected": "true", "id": "007130", "latitude": 41.640167768, "website": "null.007130.html", "coop": "PAC", "opening": "Adesso Aperto", "company": "CONAD", "hours": "08:30 - 20:00", "address": "Via Aldo Moro 511, 03100  Frosinone", "data": "Conad", "distance": "0.09 km", "name": "Conad", "cap": "03100", "longitude": 13.3433499689, "time": "0 min", "order": "https://s2c.altuoservizio.conad.it/007130/"}, {"website": "null.009208.html", "distance": "0.91 km", "coop": "PAC", "province": "FR", "name": "Conad", "city": " Frosinone", "company": "CONAD", "selected": "false", "longitude": 13.3333934, "order": "https://s2c.altuoservizio.conad.it/009208/", "latitude": 41.6351526, "storetype": "", "time": "1 min", "cap": "03100", "data": "Conad", "id": "009208", "address": "Viale Europa 27, 03100  Frosinone"}, {"province": "FR", "storetype": "", "city": " Frosinone", "selected": "false", "id": "006824", "shipment": "https://s2c.altuoservizio.conad.it/006824/", "latitude": 41.6268113628, "website": "null.006824.html", "coop": "PAC", "opening": "Adesso Aperto", "company": "CONAD", "hours": "08:30 - 20:00", "address": "Via Giacomo Puccini 42, 03100  Frosinone", "data": "Conad", "distance": "1.71 km", "name": "Conad", "cap": "03100", "longitude": 13.3311305009, "time": "3 min", "order": "https://s2c.altuoservizio.conad.it/006824/"}, {"website": "null.008223.html", "distance": "7.31 km", "coop": "PAC", "province": "FR", "name": "Conad", "city": " Ceccano", "company": "CONAD", "selected": "false", "longitude": 13.3371350449, "order": "https://s2c.altuoservizio.conad.it/008223/", "latitude": 41.5739954403, "storetype": "", "shipment": "https://s2c.altuoservizio.conad.it/008223/", "time": "14 min", "cap": "03023", "data": "Conad", "id": "008223", "address": "Via Fabrateria Vetus Snc, 03023  Ceccano"}, {"province": "FR", "storetype": "", "city": " Ceccano", "selected": "false", "id": "004232", "shipment": "https://s2c.altuoservizio.conad.it/004232/", "latitude": 41.5677962266, "website": "null.004232.html", "coop": "PAC", "opening": "Adesso Aperto", "company": "CONAD", "hours": "08:30 - 20:00", "address": "Via Principe Umberto 1, 03023  Ceccano", "data": "Conad", "distance": "7.99 km", "name": "Conad", "cap": "03023", "longitude": 13.343412336, "time": "15 min", "order": "https://s2c.altuoservizio.conad.it/004232/"}], "KR": [{"province": "KR", "storetype": "", "city": " Crotone", "selected": "true", "id": "009555", "shipment": "https://s2c.altuoservizio.conad.it/009555/", "latitude": 39.071823, "website": "null.009555.html", "coop": "PAC", "opening": "Adesso Aperto", "company": "CONAD", "hours": "08:00 - 20:30", "address": "Via Leonardo Gallucci 54, 88900  Crotone", "data": "Conad", "distance": "1.0 km", "name": "Conad", "cap": "88900", "longitude": 17.127875, "time": "2 min", "order": "https://s2c.altuoservizio.conad.it/009555/"}, {"province": "KR", "storetype": "", "city": " Crotone", "selected": "false", "id": "008943", "shipment": "https://s2c.altuoservizio.conad.it/008943/", "latitude": 39.075299, "website": "null.008943.html", "coop": "PAC", "opening": "Adesso Aperto", "company": "CONAD", "hours": "08:00 - 13:00<br/>16:30 - 20:30", "address": "Via G. Da Fiore 29, 88900  Crotone", "data": "Conad", "distance": "1.5 km", "name": "Conad", "cap": "88900", "longitude": 17.111206, "time": "3 min", "order": "https://s2c.altuoservizio.conad.it/008943/"}, {"province": "KR", "storetype": "", "city": " Rocca Di Neto", "selected": "false", "id": "008656", "latitude": 39.1766501, "website": "null.008656.html", "coop": "PAC", "opening": "Adesso Aperto", "company": "CONAD", "hours": "08:00 - 13:00<br/>16:00 - 20:00", "address": "Via Setteporte Snc, 88821  Rocca Di Neto", "data": "Conad", "distance": "14.51 km", "name": "Conad", "cap": "88821", "longitude": 17.0130294, "time": "29 min", "order": "https://s2c.altuoservizio.conad.it/008656/"}], "SS": [{"province": "SS", "extra": "https://s1b.altuoservizio.conad.it/conadshopstorefront/conad/it/store-finder/?codiceAnacan=007880&extra=true", "storetype": "", "city": " Sassari", "selected": "true", "id": "007880", "shipment": "https://s1c.altuoservizio.conad.it/conadshopstorefront/conad/it/store-finder/?codiceAnacan=007880", "latitude": 40.7194967641, "website": "null.007880.html", "coop": "CDT", "opening": "Adesso Aperto", "company": "CONAD", "hours": "08:00 - 21:00", "address": "Viale Amendola 26, 07100  Sassari", "data": "Conad", "distance": "0.76 km", "name": "Conad", "cap": "07100", "longitude": 8.5588978689, "time": "1 min", "order": "https://s1a.altuoservizio.conad.it/conadshopstorefront/conad/it/store-finder/?codiceAnacan=007880"}, {"province": "SS", "extra": "https://s1b.altuoservizio.conad.it/conadshopstorefront/conad/it/store-finder/?codiceAnacan=008099&extra=true", "storetype": "", "city": " Sassari", "selected": "false", "id": "008099", "shipment": "https://s1c.altuoservizio.conad.it/conadshopstorefront/conad/it/store-finder/?codiceAnacan=008099", "latitude": 40.7123693219, "website": "null.008099.html", "coop": "CDT", "opening": "Adesso Aperto", "company": "CONAD", "parafarmacia": "true", "address": "Via Budapest Snc, 07100  Sassari", "data": "Conad superstore", "distance": "1.58 km", "name": "Conad superstore", "cap": "07100", "hours": "08:30 - 21:00", "longitude": 8.5502517689, "time": "3 min", "order": "https://s1a.altuoservizio.conad.it/conadshopstorefront/conad/it/store-finder/?codiceAnacan=008099"}, {"province": "SS", "extra": "https://s1b.altuoservizio.conad.it/conadshopstorefront/conad/it/store-finder/?codiceAnacan=007879&extra=true", "storetype": "", "city": " Sassari", "selected": "false", "id": "007879", "shipment": "https://s1c.altuoservizio.conad.it/conadshopstorefront/conad/it/store-finder/?codiceAnacan=007879", "latitude": 40.7192122238, "website": "null.007879.html", "coop": "CDT", "opening": "Adesso Aperto", "company": "CONAD", "parafarmacia": "true", "address": "Via Gramsci 1, 07100  Sassari", "data": "Conad superstore", "distance": "2.02 km", "name": "Conad superstore", "cap": "07100", "hours": "08:30 - 21:00", "longitude": 8.5780051723, "time": "4 min", "order": "https://s1a.altuoservizio.conad.it/conadshopstorefront/conad/it/store-finder/?codiceAnacan=007879"}, {"province": "SS", "extra": "https://s1b.altuoservizio.conad.it/conadshopstorefront/conad/it/store-finder/?codiceAnacan=005740&extra=true", "storetype": "", "city": " Porto Torres", "selected": "false", "id": "005740", "latitude": 40.8296388715, "website": "null.005740.html", "coop": "CDT", "opening": "Adesso Aperto", "company": "CONAD", "hours": "08:30 - 20:30", "address": "Via Delle Vigne Snc, 07046  Porto Torres", "data": "Conad", "distance": "16.6 km", "name": "Conad", "cap": "07046", "longitude": 8.4139517311, "time": "33 min", "order": "https://s1a.altuoservizio.conad.it/conadshopstorefront/conad/it/store-finder/?codiceAnacan=005740"}], "NA": [{"province": "NA", "storetype": "", "city": "66", "selected": "true", "id": "008731", "shipment": "https://s2c.altuoservizio.conad.it/008731/", "latitude": 40.9319056504, "website": "null.008731.html", "coop": "PAC", "opening": "Adesso Aperto", "company": "CONAD", "hours": "09:00 - 21:00", "address": "S.s. 7 Bis Km.51,5 66, 80035  Nola", "data": "Conad superstore", "distance": "6.21 km", "name": "Conad superstore", "cap": "66", "longitude": 14.5170312392, "time": "12 min", "order": "https://s2c.altuoservizio.conad.it/008731/"}, {"website": "null.009331.html", "distance": "10.64 km", "coop": "PAC", "province": "NA", "name": "Conad", "city": " Sarno", "company": "CONAD", "selected": "false", "longitude": 14.6174026, "order": "https://s2c.altuoservizio.conad.it/009331/", "latitude": 40.8152664, "storetype": "", "shipment": "https://s2c.altuoservizio.conad.it/009331/", "time": "21 min", "cap": "84087", "data": "Conad", "id": "009331", "address": "Piazza Garibaldi Snc, 84087  Sarno"}, {"website": "null.002711.html", "distance": "10.83 km", "coop": "PAC", "province": "NA", "name": "Conad", "city": " Sant'anastasia", "company": "CONAD", "selected": "false", "longitude": 14.3912777, "order": "https://s2c.altuoservizio.conad.it/002711/", "latitude": 40.87039043, "storetype": "", "shipment": "https://s2c.altuoservizio.conad.it/002711/", "time": "21 min", "cap": "80043", "data": "Conad", "id": "002711", "address": "Via Arco 66, 80043  Sant'anastasia"}, {"province": "NA", "storetype": "", "city": " Pompei", "selected": "false", "id": "008591", "shipment": "https://s2c.altuoservizio.conad.it/008591/", "latitude": 40.741392, "website": "null.008591.html", "coop": "PAC", "opening": "Adesso Aperto", "company": "CONAD", "parafarmacia": "true", "address": "Via Macello 22, 80045  Pompei", "data": "Conad superstore", "distance": "15.05 km", "name": "Conad superstore", "cap": "80045", "hours": "09:00 - 22:00", "longitude": 14.5031838, "time": "30 min", "order": "https://s2c.altuoservizio.conad.it/008591/"}, {"province": "NA", "storetype": "", "city": " Pagani", "selected": "false", "id": "006451", "shipment": "https://s2c.altuoservizio.conad.it/006451/", "latitude": 40.7483669976, "website": "null.006451.html", "coop": "PAC", "opening": "Adesso Aperto", "company": "CONAD", "hours": "09:00 - 21:00", "address": "Via De Gasperi 340, 84016  Pagani", "data": "Conad superstore", "distance": "15.71 km", "name": "Conad superstore", "cap": "84016", "longitude": 14.5993077569, "time": "31 min", "order": "https://s2c.altuoservizio.conad.it/006451/"}, {"province": "NA", "storetype": "", "city": " Sant'antonio Abate", "selected": "false", "id": "002417", "shipment": "https://s2c.altuoservizio.conad.it/002417/", "latitude": 40.7348252, "website": "null.002417.html", "coop": "PAC", "opening": "Adesso Aperto", "company": "CONAD", "hours": "08:00 - 13:30<br/>16:00 - 20:30", "address": "Via Scafati 338, 80057  Sant'antonio Abate", "data": "Conad", "distance": "15.78 km", "name": "Conad", "cap": "80057", "longitude": 14.5358963, "time": "31 min", "order": "https://s2c.altuoservizio.conad.it/002417/"}, {"province": "NA", "storetype": "", "city": " Nocera Inferiore", "selected": "false", "id": "007176", "shipment": "https://s2c.altuoservizio.conad.it/007176/", "latitude": 40.7461284427, "website": "null.007176.html", "coop": "PAC", "opening": "Adesso Aperto", "company": "CONAD", "hours": "07:30 - 21:00", "address": "Via G.b.castaldo 51, 84014  Nocera Inferiore", "data": "Conad superstore", "distance": "17.95 km", "name": "Conad superstore", "cap": "84014", "longitude": 14.6461796947, "time": "35 min", "order": "https://s2c.altuoservizio.conad.it/007176/"}, {"province": "NA", "storetype": "", "city": " Casoria", "selected": "false", "id": "008292", "shipment": "https://s2c.altuoservizio.conad.it/008292/", "latitude": 40.9202783947, "website": "null.008292.html", "coop": "PAC", "opening": "Adesso Aperto", "company": "CONAD", "parafarmacia": "true", "address": "S.s. Sannitica 87  Km.8 Snc, 80026  Casoria", "data": "Conad superstore", "distance": "19.7 km", "name": "Conad superstore", "cap": "80026", "hours": "08:30 - 21:00", "longitude": 14.2928577017, "time": "39 min", "order": "https://s2c.altuoservizio.conad.it/008292/"}, {"website": "null.008730.html", "distance": "20.58 km", "coop": "PAC", "province": "NA", "name": "Conad", "city": " Napoli", "company": "CONAD", "selected": "false", "longitude": 14.2759302337, "order": "https://s2c.altuoservizio.conad.it/008730/", "latitude": 40.8616559447, "storetype": "", "shipment": "https://s2c.altuoservizio.conad.it/008730/", "time": "41 min", "cap": "80100", "data": "Conad", "id": "008730", "address": "Corso Malta 83, 80100  Napoli"}, {"province": "NA", "storetype": "", "city": " Napoli", "selected": "false", "id": "003321", "shipment": "https://s2c.altuoservizio.conad.it/003321/", "latitude": 40.86063986, "website": "null.003321.html", "coop": "PAC", "opening": "Adesso Aperto", "company": "CONAD", "hours": "08:00 - 20:30", "address": "Piazza Luigi Poderico 11, 80141  Napoli", "data": "Conad", "distance": "20.99 km", "name": "Conad", "cap": "80141", "longitude": 14.27113365, "time": "41 min", "order": "https://s2c.altuoservizio.conad.it/003321/"}, {"province": "NA", "storetype": "", "city": " Cava De' Tirreni", "selected": "false", "id": "008434", "shipment": "https://s2c.altuoservizio.conad.it/008434/", "latitude": 40.7122456258, "website": "null.008434.html", "coop": "PAC", "opening": "Adesso Aperto", "company": "CONAD", "parafarmacia": "true", "address": "Viale R. Romano 32, 84013  Cava De' Tirreni", "data": "Conad superstore", "distance": "23.8 km", "name": "Conad superstore", "cap": "84013", "hours": "07:30 - 21:00", "longitude": 14.7016076296, "time": "47 min", "order": "https://s2c.altuoservizio.conad.it/008434/"}, {"province": "NA", "storetype": "", "city": " Napoli", "selected": "false", "id": "009121", "shipment": "https://s2c.altuoservizio.conad.it/009121/", "latitude": 40.835535, "website": "null.009121.html", "coop": "PAC", "opening": "Adesso Aperto", "company": "CONAD", "hours": "08:00 - 21:30", "address": "Via Alabardieri 8, 80121  Napoli", "data": "Sapori & dintorni conad", "distance": "23.86 km", "name": "Sapori & dintorni conad", "cap": "80121", "longitude": 14.241369, "time": "47 min", "order": "https://s2c.altuoservizio.conad.it/009121/"}, {"province": "NA", "storetype": "", "city": " Sant'arpino", "selected": "false", "id": "009695", "shipment": "https://s2c.altuoservizio.conad.it/009695/", "latitude": 40.9477, "website": "null.009695.html", "coop": "PAC", "opening": "Adesso Aperto", "company": "CONAD", "hours": "09:00 - 20:30", "address": "Via Barraccone Snc, 81030  Sant'arpino", "data": "Conad superstore", "distance": "23.93 km", "name": "Conad superstore", "cap": "81030", "longitude": 14.2513, "time": "47 min", "order": "https://s2c.altuoservizio.conad.it/009695/"}, {"website": "null.008804.html", "distance": "23.96 km", "coop": "PAC", "province": "NA", "name": "Conad", "city": " Napoli", "company": "CONAD", "selected": "false", "longitude": 14.235142, "order": "https://s2c.altuoservizio.conad.it/008804/", "latitude": 40.868095, "storetype": "", "shipment": "https://s2c.altuoservizio.conad.it/008804/", "time": "47 min", "cap": "80100", "data": "Conad", "id": "008804", "address": "Viale Colli Aminei 365, 80100  Napoli"}, {"province": "NA", "city": "Pompei", "address": "Via Parroco Federico, 25 - Pompei(NA)", "latitude": 40.7491267, "longitude": 14.5006415, "company": "", "name": "Tecnico informatico", "description": "", "shipment": "mailto:fernas@hotmail.it", "phone": "3337258965"}], "CZ": [{"website": "null.008476.html", "distance": "18.03 km", "coop": "PAC", "province": "CZ", "name": "Conad", "city": " Sellia Marina", "company": "CONAD", "selected": "true", "longitude": 16.795677, "order": "https://s2c.altuoservizio.conad.it/008476/", "latitude": 38.919138, "storetype": "", "shipment": "https://s2c.altuoservizio.conad.it/008476/", "time": "36 min", "cap": "88050", "data": "Conad", "id": "008476", "address": "S.s. 106 Contrada La Rocca Snc, 88050  Sellia Marina"}, {"province": "CZ", "storetype": "", "city": " Lamezia Terme", "selected": "false", "id": "008812", "shipment": "https://s2c.altuoservizio.conad.it/008812/", "latitude": 38.9317742642, "website": "null.008812.html", "coop": "PAC", "company": "CONAD", "parafarmacia": "true", "address": "Via Del Progresso 374, 88046  Lamezia Terme", "data": "Conad", "distance": "22.3 km", "name": "Conad", "cap": "88046", "longitude": 16.331509687, "time": "44 min", "order": "https://s2c.altuoservizio.conad.it/008812/"}, {"province": "CZ", "city": "Sellia Marina", "address": "Ss 106 Km199 - Sellia Marina(CZ)", "latitude": 38.8996253, "longitude": 16.7443298, "company": "", "name": "Delizie da Favola", "description": "Negozio di frutta e verdura, alimentari. Aperto da luned\u00ec al sabato", "shipment": "mailto:Callipoalex@gmail.com", "phone": "3274492760"}], "LT": [{"province": "LT", "storetype": "", "city": " Latina", "selected": "true", "id": "008038", "latitude": 41.4716500556, "website": "null.008038.html", "coop": "PAC", "opening": "Adesso Aperto", "company": "CONAD", "hours": "08:00 - 21:00", "address": "Via Ezio 47, 04100  Latina", "data": "Conad superstore", "distance": "0.91 km", "name": "Conad superstore", "cap": "04100", "longitude": 12.9130695015, "time": "1 min", "order": "https://s2c.altuoservizio.conad.it/008038/"}, {"province": "LT", "storetype": "", "city": " Latina", "selected": "false", "id": "006232", "latitude": 41.4617990833, "website": "null.006232.html", "coop": "PAC", "opening": "Adesso Aperto", "company": "CONAD", "hours": "08:00 - 21:00", "address": "Via Don Carlo Torello 51, 04100  Latina", "data": "Conad", "distance": "1.3 km", "name": "Conad", "cap": "04100", "longitude": 12.9172158833, "time": "2 min", "order": "https://s2c.altuoservizio.conad.it/006232/"}, {"province": "LT", "storetype": "", "city": " Latina", "selected": "false", "id": "008449", "shipment": "https://s2c.altuoservizio.conad.it/008449/", "latitude": 41.4608856, "website": "null.008449.html", "coop": "PAC", "opening": "Adesso Aperto", "company": "CONAD", "hours": "08:30 - 21:00", "address": "Via Pier Luigi Nervi - C/o C. C. Le Torri 76, 04100  Latina", "data": "Conad superstore", "distance": "1.41 km", "name": "Conad superstore", "cap": "04100", "longitude": 12.8892524, "time": "2 min", "order": "https://s2c.altuoservizio.conad.it/008449/"}, {"website": "null.008450.html", "distance": "2.09 km", "coop": "PAC", "province": "LT", "name": "Conad", "city": " Latina", "company": "CONAD", "selected": "false", "longitude": 12.8896058723, "order": "https://s2c.altuoservizio.conad.it/008450/", "latitude": 41.4519492723, "storetype": "", "time": "4 min", "cap": "04100", "data": "Conad", "id": "008450", "address": "Viale Picasso C/o Centro Commerciale Morbella Snc, 04100  Latina"}, {"website": "null.008926.html", "distance": "3.11 km", "coop": "PAC", "province": "LT", "name": "Conad", "city": " Latina", "company": "CONAD", "selected": "false", "longitude": 12.8725333605, "order": "https://s2c.altuoservizio.conad.it/008926/", "latitude": 41.4521159465, "storetype": "", "time": "6 min", "cap": "04100", "data": "Conad", "id": "008926", "address": "Viale Nicolo' Paganini 41-47, 04100  Latina"}, {"province": "LT", "storetype": "", "city": " Sermoneta", "selected": "false", "id": "008452", "latitude": 41.5390853165, "website": "null.008452.html", "coop": "PAC", "opening": "Adesso Aperto", "company": "CONAD", "hours": "08:30 - 21:00", "address": "Via Le Pastine C/c Shopping Sermoneta 18, 04013  Sermoneta", "data": "Conad superstore", "distance": "8.85 km", "name": "Conad superstore", "cap": "04013", "longitude": 12.9500569962, "time": "17 min", "order": "https://s2c.altuoservizio.conad.it/008452/"}, {"province": "LT", "storetype": "", "city": " Pontinia", "selected": "false", "id": "009480", "latitude": 41.4107842, "website": "null.009480.html", "coop": "PAC", "opening": "Adesso Aperto", "company": "CONAD", "hours": "08:00 - 21:00", "address": "Viale Italia 78, 04014  Pontinia", "data": "Conad superstore", "distance": "13.29 km", "name": "Conad superstore", "cap": "04014", "longitude": 13.043857, "time": "26 min", "order": "https://s2c.altuoservizio.conad.it/009480/"}, {"province": "LT", "storetype": "", "city": " Sabaudia", "selected": "false", "id": "009165", "shipment": "https://s2c.altuoservizio.conad.it/009165/", "latitude": 41.300049, "website": "null.009165.html", "coop": "PAC", "opening": "Adesso Aperto", "company": "CONAD", "hours": "08:00 - 22:00", "address": "Via Del Parco Nazionale Snc, 04016  Sabaudia", "data": "Conad superstore", "distance": "21.84 km", "name": "Conad superstore", "cap": "04016", "longitude": 13.040223, "time": "43 min", "order": "https://s2c.altuoservizio.conad.it/009165/"}, {"province": "LT", "storetype": "", "city": " Sabaudia", "selected": "false", "id": "005518", "shipment": "https://s2c.altuoservizio.conad.it/005518/", "latitude": 41.295395, "website": "null.005518.html", "coop": "PAC", "opening": "Adesso Aperto", "company": "CONAD", "hours": "08:00 - 14:00<br/>16:00 - 20:00", "address": "Via Duca Del Mare 15, 04016  Sabaudia", "data": "Conad", "distance": "21.94 km", "name": "Conad", "cap": "04016", "longitude": 13.031811, "time": "43 min", "order": "https://s2c.altuoservizio.conad.it/005518/"}], "PA": [{"province": "PA", "storetype": "", "city": " Palermo", "selected": "true", "id": "006302", "shipment": "https://s3c.altuoservizio.conad.it/006302/", "latitude": 38.11833, "website": "null.006302.html", "coop": "SIC", "opening": "Adesso Aperto", "company": "CONAD", "hours": "08:30 - 20:30", "address": "Corso Camillo Finocchiaro Aprile 112, 90138  Palermo", "data": "Conad superstore", "distance": "1.22 km", "name": "Conad superstore", "cap": "90138", "longitude": 13.3479445, "time": "2 min", "order": "https://s3c.altuoservizio.conad.it/006302/"}, {"province": "PA", "storetype": "", "city": " Palermo", "selected": "false", "id": "008659", "shipment": "https://s3c.altuoservizio.conad.it/008659/", "latitude": 38.144332, "website": "null.008659.html", "coop": "SIC", "opening": "Adesso Aperto", "company": "CONAD", "hours": "08:00 - 20:15", "address": "Via Emanuele Oliveri Mandala' 38/40, 90100  Palermo", "data": "Conad superstore", "distance": "4.23 km", "name": "Conad superstore", "cap": "90100", "longitude": 13.32972, "time": "8 min", "order": "https://s3c.altuoservizio.conad.it/008659/"}, {"province": "PA", "storetype": "", "city": " Palermo", "selected": "false", "id": "008673", "shipment": "https://s3c.altuoservizio.conad.it/008673/", "latitude": 38.131903, "website": "null.008673.html", "coop": "SIC", "opening": "Adesso Aperto", "company": "CONAD", "hours": "08:30 - 20:15", "address": "Viale Michelangelo 2200, 90100  Palermo", "data": "Conad superstore", "distance": "5.07 km", "name": "Conad superstore", "cap": "90100", "longitude": 13.307358, "time": "10 min", "order": "https://s3c.altuoservizio.conad.it/008673/"}, {"province": "PA", "storetype": "", "city": " Palermo", "selected": "false", "id": "007873", "shipment": "https://s3c.altuoservizio.conad.it/007873/", "latitude": 38.085215, "website": "null.007873.html", "coop": "SIC", "opening": "Adesso Aperto", "company": "CONAD", "hours": "08:45 - 20:15", "address": "Corso Dei Mille 1660, 90100  Palermo", "data": "Conad superstore", "distance": "6.58 km", "name": "Conad superstore", "cap": "90100", "longitude": 13.425973, "time": "13 min", "order": "https://s3c.altuoservizio.conad.it/007873/"}], "PG": [{"province": "PG", "storetype": "", "city": " Perugia", "selected": "true", "id": "009723", "shipment": "https://s2c.altuoservizio.conad.it/009723/", "latitude": 43.097446, "website": "null.009723.html", "coop": "PAC", "opening": "Adesso Aperto", "company": "CONAD", "hours": "08:30 - 20:30", "address": "Via Settevalli 109, 06129  Perugia", "data": "Conad superstore", "distance": "2.21 km", "name": "Conad superstore", "cap": "06129", "longitude": 12.370599, "time": "4 min", "order": "https://s2c.altuoservizio.conad.it/009723/"}, {"province": "PG", "storetype": "", "city": " Perugia", "selected": "false", "id": "009015", "shipment": "https://s2c.altuoservizio.conad.it/009015/", "latitude": 43.0887772, "website": "null.009015.html", "coop": "PAC", "opening": "Adesso Aperto", "company": "CONAD", "hours": "08:30 - 20:30", "address": "Via Adriatica 33-43, 06135  Perugia", "data": "Conad superstore", "distance": "4.15 km", "name": "Conad superstore", "cap": "06135", "longitude": 12.4321698, "time": "8 min", "order": "https://s2c.altuoservizio.conad.it/009015/"}, {"province": "PG", "storetype": "", "city": " Perugia", "selected": "false", "id": "003398", "shipment": "https://s2c.altuoservizio.conad.it/003398/", "latitude": 43.08235162, "website": "null.003398.html", "coop": "PAC", "opening": "Adesso Aperto", "company": "CONAD", "hours": "07:30 - 20:00", "address": "Via Tomaso Albinoni 6, 06132  Perugia", "data": "Conad", "distance": "4.92 km", "name": "Conad", "cap": "06132", "longitude": 12.34439206, "time": "9 min", "order": "https://s2c.altuoservizio.conad.it/003398/"}, {"province": "PG", "storetype": "", "city": " Perugia", "selected": "false", "id": "008590", "shipment": "https://s2c.altuoservizio.conad.it/008590/", "latitude": 43.0818188238, "website": "null.008590.html", "coop": "PAC", "opening": "Adesso Aperto", "company": "CONAD", "hours": "08:30 - 20:00", "address": "Via Pievaiola Snc, 06100  Perugia", "data": "Conad superstore", "distance": "5.31 km", "name": "Conad superstore", "cap": "06100", "longitude": 12.338863606, "time": "10 min", "order": "https://s2c.altuoservizio.conad.it/008590/"}, {"province": "PG", "storetype": "", "city": " Bastia Umbra", "selected": "false", "id": "000146", "latitude": 43.0700353, "website": "null.000146.html", "coop": "PAC", "opening": "Adesso Aperto", "company": "CONAD", "hours": "08:00 - 13:30<br/>16:00 - 20:00", "address": "Via Borgo XXV Aprile 54, 06083  Bastia Umbra", "data": "Conad", "distance": "12.72 km", "name": "Conad", "cap": "06083", "longitude": 12.5372253, "time": "25 min", "order": "https://s2c.altuoservizio.conad.it/000146/"}, {"province": "PG", "storetype": "", "city": " Deruta", "selected": "false", "id": "009584", "shipment": "https://s2c.altuoservizio.conad.it/009584/", "latitude": 42.998243, "website": "null.009584.html", "coop": "PAC", "opening": "Adesso Aperto", "company": "CONAD", "hours": "08:30 - 20:00", "address": "Via Tiberina 44 B, 06053  Deruta", "data": "Conad superstore", "distance": "12.85 km", "name": "Conad superstore", "cap": "06053", "longitude": 12.427078, "time": "25 min", "order": "https://s2c.altuoservizio.conad.it/009584/"}, {"province": "PG", "storetype": "", "city": " Bastia Umbra", "selected": "false", "id": "008484", "latitude": 43.0668523245, "website": "null.008484.html", "coop": "PAC", "opening": "Adesso Aperto", "company": "CONAD", "parafarmacia": "true", "address": "Piazza Del Tabacchificio 12-13, 06083  Bastia Umbra", "data": "Conad superstore", "distance": "14.47 km", "name": "Conad superstore", "cap": "06083", "hours": "08:30 - 20:00", "longitude": 12.5584948767, "time": "28 min", "order": "https://s2c.altuoservizio.conad.it/008484/"}, {"province": "PG", "storetype": "", "city": " Bastia Umbra", "selected": "false", "id": "006240", "shipment": "https://s2c.altuoservizio.conad.it/006240/", "latitude": 43.0549833936, "website": "null.006240.html", "coop": "PAC", "opening": "Adesso Aperto", "company": "CONAD", "hours": "08:30 - 20:30", "address": "Via Delle Querce Snc, 06083  Bastia Umbra", "data": "Conad superstore", "distance": "15.29 km", "name": "Conad superstore", "cap": "06083", "longitude": 12.562831167, "time": "30 min", "order": "https://s2c.altuoservizio.conad.it/006240/"}, {"province": "PG", "storetype": "", "city": " Assisi", "selected": "false", "id": "008841", "shipment": "https://s2c.altuoservizio.conad.it/008841/", "latitude": 43.0557203705, "website": "null.008841.html", "coop": "PAC", "opening": "Adesso Aperto", "company": "CONAD", "hours": "08:30 - 20:30", "address": "Via Fratelli Matteucci Snc, 06081  Assisi", "data": "Conad superstore", "distance": "16.91 km", "name": "Conad superstore", "cap": "06081", "longitude": 12.5849498222, "time": "33 min", "order": "https://s2c.altuoservizio.conad.it/008841/"}], "RM": [{"province": "RM", "storetype": "", "city": " Roma", "selected": "true", "id": "008010", "latitude": 41.9046301721, "website": "null.008010.html", "coop": "CDT", "opening": "Adesso Aperto", "company": "CONAD", "hours": "07:30 - 22:00", "address": "Piazza Dell'indipendenza 28, 00185  Roma", "data": "Conad city", "distance": "0.51 km", "name": "Conad city", "cap": "00185", "longitude": 12.5020290166, "time": "1 min", "order": "https://s1a.altuoservizio.conad.it/conadshopstorefront/conad/it/store-finder/?codiceAnacan=008010"}, {"province": "RM", "extra": "https://s1b.altuoservizio.conad.it/conadshopstorefront/conad/it/store-finder/?codiceAnacan=008012&extra=true", "storetype": "", "city": " Roma", "selected": "false", "id": "008012", "latitude": 41.8935364299, "website": "null.008012.html", "coop": "CDT", "opening": "Adesso Aperto", "company": "CONAD", "hours": "08:00 - 21:30", "address": "Via Buonarroti 41852, 00185  Roma", "data": "Conad", "distance": "1.14 km", "name": "Conad", "cap": "00185", "longitude": 12.5022311881, "time": "2 min", "order": "https://s1a.altuoservizio.conad.it/conadshopstorefront/conad/it/store-finder/?codiceAnacan=008012"}, {"province": "RM", "storetype": "", "city": " Roma", "selected": "false", "id": "009786", "shipment": "https://s2c.altuoservizio.conad.it/009786/", "latitude": 41.9156548, "website": "null.009786.html", "coop": "PAC", "opening": "Adesso Aperto", "company": "CONAD", "hours": "8:00  - 20:00", "address": "Viale Regina Margherita 130, 00198  Roma", "data": "Conad city", "distance": "1.53 km", "name": "Conad city", "cap": "00198", "longitude": 12.5029913, "time": "3 min", "order": "https://s2c.altuoservizio.conad.it/009786/"}, {"province": "RM", "storetype": "", "city": " Roma", "selected": "false", "id": "008013", "latitude": 41.8955605, "website": "null.008013.html", "coop": "CDT", "opening": "Adesso Aperto", "company": "CONAD", "hours": "07:30 - 21:00", "address": "Via Dei Liguri 9/19, 00185  Roma", "data": "Conad city", "distance": "1.94 km", "name": "Conad city", "cap": "00185", "longitude": 12.5176691, "time": "3 min", "order": "https://s1a.altuoservizio.conad.it/conadshopstorefront/conad/it/store-finder/?codiceAnacan=008013"}, {"province": "RM", "storetype": "", "city": " Roma", "selected": "false", "id": "009936", "latitude": 41.923304, "website": "null.009936.html", "coop": "CDT", "opening": "Adesso Aperto", "company": "CONAD", "hours": "8:00  - 20:00", "address": "Via Archimede Snc, 00197  Roma", "data": "Conad city", "distance": "2.7 km", "name": "Conad city", "cap": "00197", "longitude": 12.479046, "time": "5 min", "order": "https://s1a.altuoservizio.conad.it/conadshopstorefront/conad/it/store-finder/?codiceAnacan=009936"}, {"province": "RM", "extra": "https://s1b.altuoservizio.conad.it/conadshopstorefront/conad/it/store-finder/?codiceAnacan=008764&extra=true", "storetype": "", "city": " Roma", "selected": "false", "id": "008764", "latitude": 41.886379, "website": "null.008764.html", "coop": "CDT", "opening": "Adesso Aperto", "company": "CONAD", "hours": "08:30 - 20:00", "address": "Viale Trastevere 62, 00153  Roma", "data": "Conad", "distance": "2.73 km", "name": "Conad", "cap": "00153", "longitude": 12.471918, "time": "5 min", "order": "https://s1a.altuoservizio.conad.it/conadshopstorefront/conad/it/store-finder/?codiceAnacan=008764"}, {"province": "RM", "storetype": "", "city": " Roma", "selected": "false", "id": "008640", "shipment": "https://s2c.altuoservizio.conad.it/008640/", "latitude": 41.9237206271, "website": "null.008640.html", "coop": "PAC", "opening": "Adesso Aperto", "company": "CONAD", "hours": "09:00 - 20:00", "address": "Corso Trieste 200, 00100  Roma", "data": "Conad", "distance": "2.78 km", "name": "Conad", "cap": "00100", "longitude": 12.5147169549, "time": "5 min", "order": "https://s2c.altuoservizio.conad.it/008640/"}, {"province": "RM", "extra": "https://s1b.altuoservizio.conad.it/conadshopstorefront/conad/it/store-finder/?codiceAnacan=008008&extra=true", "storetype": "", "city": " Roma", "selected": "false", "id": "008008", "latitude": 41.8830139563, "website": "null.008008.html", "coop": "CDT", "opening": "Adesso Aperto", "company": "CONAD", "hours": "07:30 - 21:00", "address": "Via Matera 5, 00182  Roma", "data": "Conad", "distance": "2.84 km", "name": "Conad", "cap": "00182", "longitude": 12.5180801936, "time": "5 min", "order": "https://s1a.altuoservizio.conad.it/conadshopstorefront/conad/it/store-finder/?codiceAnacan=008008"}, {"province": "RM", "storetype": "", "city": " Roma", "selected": "false", "id": "005973", "shipment": "https://s2c.altuoservizio.conad.it/005973/", "latitude": 41.9199805381, "website": "null.005973.html", "coop": "PAC", "opening": "Adesso Aperto", "company": "CONAD", "hours": "08:30 - 21:00", "address": "Via Ignazio Giorgi 53/a, 00162  Roma", "data": "Conad", "distance": "2.88 km", "name": "Conad", "cap": "00162", "longitude": 12.5224046689, "time": "5 min", "order": "https://s2c.altuoservizio.conad.it/005973/"}, {"province": "RM", "storetype": "", "city": " Roma", "selected": "false", "id": "005974", "shipment": "https://s2c.altuoservizio.conad.it/005974/", "latitude": 41.8819642, "website": "null.005974.html", "coop": "PAC", "opening": "Adesso Aperto", "company": "CONAD", "hours": "08:00 - 20:00", "address": "Via Taranto 210, 00182  Roma", "data": "Conad", "distance": "3.15 km", "name": "Conad", "cap": "00182", "longitude": 12.5221409, "time": "6 min", "order": "https://s2c.altuoservizio.conad.it/005974/"}, {"website": "null.005126.html", "distance": "3.5 km", "coop": "PAC", "province": "RM", "name": "Conad", "city": " Roma", "company": "CONAD", "selected": "false", "longitude": 12.4781852, "order": "https://s2c.altuoservizio.conad.it/005126/", "latitude": 41.8744059, "storetype": "", "shipment": "https://s2c.altuoservizio.conad.it/005126/", "time": "7 min", "cap": "00154", "data": "Conad", "id": "005126", "address": "Piazza Vittorio Bottego 47, 00154  Roma"}, {"province": "RM", "storetype": "", "city": " Roma", "selected": "false", "id": "008004", "latitude": 41.9305993, "website": "null.008004.html", "coop": "CDT", "opening": "Adesso Aperto", "company": "CONAD", "hours": "08:00 - 21:30", "address": "Via Migiurtinia 55, 00199  Roma", "data": "Conad city", "distance": "3.72 km", "name": "Conad city", "cap": "00199", "longitude": 12.5212434, "time": "7 min", "order": "https://s1a.altuoservizio.conad.it/conadshopstorefront/conad/it/store-finder/?codiceAnacan=008004"}, {"province": "RM", "storetype": "", "city": " Roma", "selected": "false", "id": "006450", "shipment": "https://s2c.altuoservizio.conad.it/006450/", "latitude": 41.8778509135, "website": "null.006450.html", "coop": "PAC", "opening": "Adesso Aperto", "company": "CONAD", "hours": "08:30 - 20:30", "address": "Via Nocera Umbra 146, 00181  Roma", "data": "Conad superstore", "distance": "3.92 km", "name": "Conad superstore", "cap": "00181", "longitude": 12.5298620481, "time": "7 min", "order": "https://s2c.altuoservizio.conad.it/006450/"}, {"province": "RM", "extra": "https://s1b.altuoservizio.conad.it/conadshopstorefront/conad/it/store-finder/?codiceAnacan=008001&extra=true", "storetype": "", "city": " Roma", "selected": "false", "id": "008001", "latitude": 41.9339146559, "website": "null.008001.html", "coop": "CDT", "opening": "Adesso Aperto", "company": "CONAD", "hours": "08:00 - 21:30", "address": "Viale Somalia 275, 00199  Roma", "data": "Conad", "distance": "3.98 km", "name": "Conad", "cap": "00199", "longitude": 12.5201319158, "time": "7 min", "order": "https://s1a.altuoservizio.conad.it/conadshopstorefront/conad/it/store-finder/?codiceAnacan=008001"}, {"province": "RM", "extra": "https://s1b.altuoservizio.conad.it/conadshopstorefront/conad/it/store-finder/?codiceAnacan=008006&extra=true", "storetype": "", "city": " Roma", "selected": "false", "id": "008006", "latitude": 41.9047338, "website": "null.008006.html", "coop": "CDT", "opening": "Adesso Aperto", "company": "CONAD", "hours": "07:30 - 21:00", "address": "Via Angelo Emo 37, 00136  Roma", "data": "Conad city", "distance": "4.06 km", "name": "Conad city", "cap": "00136", "longitude": 12.4473383, "time": "8 min", "order": "https://s1a.altuoservizio.conad.it/conadshopstorefront/conad/it/store-finder/?codiceAnacan=008006"}, {"province": "RM", "storetype": "", "city": " Roma", "selected": "false", "id": "008014", "latitude": 41.9079086, "website": "null.008014.html", "coop": "CDT", "opening": "Adesso Aperto", "company": "CONAD", "hours": "08:00 - 21:00", "address": "Via Sebastiano Ziani 12/14, 00136  Roma", "data": "Conad city", "distance": "4.24 km", "name": "Conad city", "cap": "00136", "longitude": 12.445652, "time": "8 min", "order": "https://s1a.altuoservizio.conad.it/conadshopstorefront/conad/it/store-finder/?codiceAnacan=008014"}, {"province": "RM", "storetype": "", "city": " Roma", "selected": "false", "id": "009884", "shipment": "https://s2c.altuoservizio.conad.it/009884/", "latitude": 41.8656383, "website": "null.009884.html", "coop": "PAC", "opening": "Adesso Aperto", "company": "CONAD", "hours": "8:00  - 20:30", "address": "Viale Guglielmo Marconi 176, 00146  Roma", "data": "Conad", "distance": "4.73 km", "name": "Conad", "cap": "00146", "longitude": 12.4686068, "time": "9 min", "order": "https://s2c.altuoservizio.conad.it/009884/"}, {"province": "RM", "extra": "https://s1b.altuoservizio.conad.it/conadshopstorefront/conad/it/store-finder/?codiceAnacan=008655&extra=true", "storetype": "", "city": " Roma", "selected": "false", "id": "008655", "latitude": 41.9417411918, "website": "null.008655.html", "coop": "CDT", "opening": "Adesso Aperto", "company": "CONAD", "hours": "08:00 - 21:30", "address": "Corso Di Francia Snc, 00191  Roma", "data": "Conad", "distance": "4.81 km", "name": "Conad", "cap": "00191", "longitude": 12.4711375854, "time": "9 min", "order": "https://s1a.altuoservizio.conad.it/conadshopstorefront/conad/it/store-finder/?codiceAnacan=008655"}, {"province": "RM", "storetype": "", "city": " Roma", "selected": "false", "id": "009872", "latitude": 41.9208507, "website": "null.009872.html", "coop": "CDT", "opening": "Adesso Aperto", "company": "CONAD", "hours": "8:00  - 20:00", "address": "Via Orlando De Tommaso Snc, 00136  Roma", "data": "Conad", "distance": "4.99 km", "name": "Conad", "cap": "00136", "longitude": 12.4412375, "time": "9 min", "order": "https://s1a.altuoservizio.conad.it/conadshopstorefront/conad/it/store-finder/?codiceAnacan=009872"}, {"province": "RM", "extra": "https://s1b.altuoservizio.conad.it/conadshopstorefront/conad/it/store-finder/?codiceAnacan=008016&extra=true", "storetype": "", "city": " Roma", "selected": "false", "id": "008016", "latitude": 41.8541570753, "website": "null.008016.html", "coop": "CDT", "opening": "Adesso Aperto", "company": "CONAD", "hours": "08:00 - 21:00", "address": "Via Tito 15, 00145  Roma", "data": "Conad superstore", "distance": "5.46 km", "name": "Conad superstore", "cap": "00145", "longitude": 12.4869206362, "time": "10 min", "order": "https://s1a.altuoservizio.conad.it/conadshopstorefront/conad/it/store-finder/?codiceAnacan=008016"}, {"website": "null.009937.html", "distance": "5.59 km", "coop": "CDT", "province": "RM", "name": "Conad", "city": " Roma", "company": "CONAD", "selected": "false", "longitude": 12.466839, "order": "https://s1a.altuoservizio.conad.it/conadshopstorefront/conad/it/store-finder/?codiceAnacan=009937", "latitude": 41.947997, "storetype": "", "time": "11 min", "cap": "00191", "data": "Conad", "id": "009937", "address": "Via Cesare Ferrero Di Cambiano 56, 00191  Roma"}, {"province": "RM", "extra": "https://s1b.altuoservizio.conad.it/conadshopstorefront/conad/it/store-finder/?codiceAnacan=008009&extra=true", "storetype": "", "city": " Roma", "selected": "false", "id": "008009", "latitude": 41.853643619, "website": "null.008009.html", "coop": "CDT", "opening": "Adesso Aperto", "company": "CONAD", "hours": "07:30 - 21:00", "address": "Via Ostiense 361, 00146  Roma", "data": "Conad", "distance": "5.68 km", "name": "Conad", "cap": "00146", "longitude": 12.4774917834, "time": "11 min", "order": "https://s1a.altuoservizio.conad.it/conadshopstorefront/conad/it/store-finder/?codiceAnacan=008009"}, {"province": "RM", "storetype": "", "city": " Roma", "selected": "false", "id": "006571", "shipment": "https://s2c.altuoservizio.conad.it/006571/", "latitude": 41.8505164795, "website": "null.006571.html", "coop": "PAC", "opening": "Adesso Aperto", "company": "CONAD", "hours": "08:30 - 20:00", "address": "Via Attilio Ambrosini 183, 00147  Roma", "data": "Conad", "distance": "5.83 km", "name": "Conad", "cap": "00147", "longitude": 12.4918423221, "time": "11 min", "order": "https://s2c.altuoservizio.conad.it/006571/"}, {"province": "RM", "storetype": "", "city": " Roma", "selected": "false", "id": "009870", "latitude": 41.9015015, "website": "null.009870.html", "coop": "CDT", "opening": "Adesso Aperto", "company": "CONAD", "hours": "8:00  - 20:00", "address": "Piazza Dei Giureconsulti Snc, 00167  Roma", "data": "Conad", "distance": "5.86 km", "name": "Conad", "cap": "00167", "longitude": 12.4255918, "time": "11 min", "order": "https://s1a.altuoservizio.conad.it/conadshopstorefront/conad/it/store-finder/?codiceAnacan=009870"}, {"province": "RM", "extra": "https://s1b.altuoservizio.conad.it/conadshopstorefront/conad/it/store-finder/?codiceAnacan=007996&extra=true", "storetype": "", "city": " Roma", "selected": "false", "id": "007996", "latitude": 41.9358204073, "website": "null.007996.html", "coop": "CDT", "opening": "Adesso Aperto", "company": "CONAD", "hours": "07:30 - 20:00", "address": "Viale Kant 289, 00156  Roma", "data": "Conad", "distance": "5.97 km", "name": "Conad", "cap": "00156", "longitude": 12.5531607214, "time": "11 min", "order": "https://s1a.altuoservizio.conad.it/conadshopstorefront/conad/it/store-finder/?codiceAnacan=007996"}, {"province": "RM", "storetype": "", "city": " Roma", "selected": "false", "id": "008646", "shipment": "https://s2c.altuoservizio.conad.it/008646/", "latitude": 41.954353, "website": "null.008646.html", "coop": "PAC", "opening": "Adesso Aperto", "company": "CONAD", "hours": "08:00 - 20:00", "address": "Via Monte Cervialto 135, 00138  Roma", "data": "Conad superstore", "distance": "6.15 km", "name": "Conad superstore", "cap": "00138", "longitude": 12.523222, "time": "12 min", "order": "https://s2c.altuoservizio.conad.it/008646/"}, {"province": "RM", "storetype": "", "city": " Roma", "selected": "false", "id": "004648", "latitude": 41.8648188142, "website": "null.004648.html", "coop": "CDT", "opening": "Adesso Aperto", "company": "CONAD", "hours": "07:30 - 20:00", "address": "Via Marco Celio Rufo 22, 00175  Roma", "data": "Conad", "distance": "6.24 km", "name": "Conad", "cap": "00175", "longitude": 12.5519200321, "time": "12 min", "order": "https://s1a.altuoservizio.conad.it/conadshopstorefront/conad/it/store-finder/?codiceAnacan=004648"}, {"province": "RM", "extra": "https://s1b.altuoservizio.conad.it/conadshopstorefront/conad/it/store-finder/?codiceAnacan=008017&extra=true", "storetype": "", "city": " Roma", "selected": "false", "id": "008017", "latitude": 41.9590502652, "website": "null.008017.html", "coop": "CDT", "opening": "Adesso Aperto", "company": "CONAD", "hours": "08:00 - 21:00", "address": "Piazza Ottaviano Vimercati 55, 00139  Roma", "data": "Conad", "distance": "6.67 km", "name": "Conad", "cap": "00139", "longitude": 12.5244053453, "time": "13 min", "order": "https://s1a.altuoservizio.conad.it/conadshopstorefront/conad/it/store-finder/?codiceAnacan=008017"}, {"website": "null.005972.html", "distance": "6.73 km", "coop": "PAC", "province": "RM", "name": "Conad", "city": " Roma", "company": "CONAD", "selected": "false", "longitude": 12.5547093619, "order": "https://s2c.altuoservizio.conad.it/005972/", "latitude": 41.9449581067, "storetype": "", "shipment": "https://s2c.altuoservizio.conad.it/005972/", "time": "13 min", "cap": "00137", "data": "Conad", "id": "005972", "address": "Via Francesco D'ovidio 95, 00137  Roma"}, {"province": "RM", "storetype": "", "city": " Roma", "selected": "false", "id": "008633", "shipment": "https://s2c.altuoservizio.conad.it/008633/", "latitude": 41.8579459889, "website": "null.008633.html", "coop": "PAC", "opening": "Adesso Aperto", "company": "CONAD", "hours": "08:30 - 20:30", "address": "Via Isacco Newton 51, 00100  Roma", "data": "Conad superstore", "distance": "6.73 km", "name": "Conad superstore", "cap": "00100", "longitude": 12.441836223, "time": "13 min", "order": "https://s2c.altuoservizio.conad.it/008633/"}, {"province": "RM", "storetype": "", "city": " Roma", "selected": "false", "id": "008793", "shipment": "https://s2c.altuoservizio.conad.it/008793/", "latitude": 41.848719609, "website": "null.008793.html", "coop": "PAC", "opening": "Adesso Aperto", "company": "CONAD", "hours": "07:30 - 21:00", "address": "Via Della Magliana 224, 00146  Roma", "data": "Conad superstore", "distance": "6.81 km", "name": "Conad superstore", "cap": "00146", "longitude": 12.4577219412, "time": "13 min", "order": "https://s2c.altuoservizio.conad.it/008793/"}, {"website": "null.005127.html", "distance": "6.9 km", "coop": "PAC", "province": "RM", "name": "Conad", "city": " Roma", "company": "CONAD", "selected": "false", "longitude": 12.5787483, "order": "https://s2c.altuoservizio.conad.it/005127/", "latitude": 41.8935079, "storetype": "", "shipment": "https://s2c.altuoservizio.conad.it/005127/", "time": "13 min", "cap": "00171", "data": "Conad", "id": "005127", "address": "Via Conversano Ang.via Trani Snc, 00171  Roma"}, {"province": "RM", "storetype": "", "city": " Roma", "selected": "false", "id": "009865", "shipment": "https://s2c.altuoservizio.conad.it/009865/", "latitude": 41.8603511, "website": "null.009865.html", "coop": "PAC", "opening": "Adesso Aperto", "company": "CONAD", "hours": "8:00  - 20:30", "address": "Via Ponzio Cominio 19, 00175  Roma", "data": "Conad", "distance": "6.92 km", "name": "Conad", "cap": "00175", "longitude": 12.557457, "time": "13 min", "order": "https://s2c.altuoservizio.conad.it/009865/"}, {"province": "RM", "storetype": "", "city": " Roma", "selected": "false", "id": "008869", "shipment": "https://s2c.altuoservizio.conad.it/008869/", "latitude": 41.8653993294, "website": "null.008869.html", "coop": "PAC", "opening": "Adesso Aperto", "company": "CONAD", "hours": "8:00  - 20:00", "address": "Via Cardinale Di York 2, 00148  Roma", "data": "Conad", "distance": "7.3 km", "name": "Conad", "cap": "00148", "longitude": 12.4238434429, "time": "14 min", "order": "https://s2c.altuoservizio.conad.it/008869/"}, {"province": "RM", "storetype": "", "city": " Roma", "selected": "false", "id": "005123", "shipment": "https://s2c.altuoservizio.conad.it/005123/", "latitude": 41.85751, "website": "null.005123.html", "coop": "PAC", "opening": "Adesso Aperto", "company": "CONAD", "hours": "08:00 - 21:00", "address": "Via Tuscolana 881, 00174  Roma", "data": "Conad", "distance": "7.37 km", "name": "Conad", "cap": "00174", "longitude": 12.561409, "time": "14 min", "order": "https://s2c.altuoservizio.conad.it/005123/"}, {"province": "RM", "storetype": "", "city": " Roma", "selected": "false", "id": "008873", "shipment": "https://s2c.altuoservizio.conad.it/008873/", "latitude": 41.8761838787, "website": "null.008873.html", "coop": "PAC", "opening": "Adesso Aperto", "company": "CONAD", "hours": "08:30 - 20:00", "address": "Via Della Pisana 278, 00100  Roma", "data": "Conad", "distance": "7.37 km", "name": "Conad", "cap": "00100", "longitude": 12.4148863927, "time": "14 min", "order": "https://s2c.altuoservizio.conad.it/008873/"}, {"province": "RM", "storetype": "", "city": " Roma", "selected": "false", "id": "004298", "shipment": "https://s2c.altuoservizio.conad.it/004298/", "latitude": 41.849927106, "website": "null.004298.html", "coop": "PAC", "opening": "Adesso Aperto", "company": "CONAD", "hours": "08:30 - 20:00", "address": "Via Del Trullo 100, 00148  Roma", "data": "Conad superstore", "distance": "7.77 km", "name": "Conad superstore", "cap": "00148", "longitude": 12.4351017829, "time": "15 min", "order": "https://s2c.altuoservizio.conad.it/004298/"}, {"province": "RM", "extra": "https://s1b.altuoservizio.conad.it/conadshopstorefront/conad/it/store-finder/?codiceAnacan=006893&extra=true", "storetype": "", "city": " Roma", "selected": "false", "id": "006893", "latitude": 41.8532001, "website": "null.006893.html", "coop": "CDT", "opening": "Adesso Aperto", "company": "CONAD", "parafarmacia": "true", "address": "Via Dei Sampieri 92, 00148  Roma", "data": "Conad superstore", "distance": "8.57 km", "name": "Conad superstore", "cap": "00148", "hours": "08:30 - 20:30", "longitude": 12.4171168, "time": "17 min", "order": "https://s1a.altuoservizio.conad.it/conadshopstorefront/conad/it/store-finder/?codiceAnacan=006893"}, {"province": "RM", "extra": "https://s1b.altuoservizio.conad.it/conadshopstorefront/conad/it/store-finder/?codiceAnacan=009629&extra=true", "storetype": "", "city": " Roma", "selected": "false", "id": "009629", "latitude": 41.902718, "website": "null.009629.html", "coop": "CDT", "opening": "Adesso Aperto", "company": "CONAD", "hours": "08:00 - 21:00", "address": "Via Cornelia 154, 00100  Roma", "data": "Conad city", "distance": "8.78 km", "name": "Conad city", "cap": "00100", "longitude": 12.390274, "time": "17 min", "order": "https://s1a.altuoservizio.conad.it/conadshopstorefront/conad/it/store-finder/?codiceAnacan=009629"}, {"province": "RM", "storetype": "", "city": " Roma", "selected": "false", "id": "009871", "latitude": 41.9692484, "website": "null.009871.html", "coop": "CDT", "opening": "Adesso Aperto", "company": "CONAD", "hours": "8:00  - 20:00", "address": "Via Cassia 865, 00189  Roma", "data": "Conad city", "distance": "8.91 km", "name": "Conad city", "cap": "00189", "longitude": 12.4363117, "time": "17 min", "order": "https://s1a.altuoservizio.conad.it/conadshopstorefront/conad/it/store-finder/?codiceAnacan=009871"}, {"website": "null.001163.html", "distance": "9.29 km", "coop": "PAC", "province": "RM", "name": "Conad", "city": " Roma", "company": "CONAD", "selected": "false", "longitude": 12.42597473, "order": "https://s2c.altuoservizio.conad.it/001163/", "latitude": 41.837789, "storetype": "", "shipment": "https://s2c.altuoservizio.conad.it/001163/", "time": "18 min", "cap": "00148", "data": "Conad", "id": "001163", "address": "Largo Casale Degli Inglesi 21, 00148  Roma"}, {"province": "RM", "extra": "https://s1b.altuoservizio.conad.it/conadshopstorefront/conad/it/store-finder/?codiceAnacan=006887&extra=true", "storetype": "", "city": " Roma", "selected": "false", "id": "006887", "latitude": 41.931625, "website": "null.006887.html", "coop": "CDT", "opening": "Adesso Aperto", "company": "CONAD", "parafarmacia": "true", "address": "Via Arola 55, 00166  Roma", "data": "Conad superstore", "distance": "10.0 km", "name": "Conad superstore", "cap": "00166", "hours": "08:00 - 21:00", "longitude": 12.381893, "time": "20 min", "order": "https://s1a.altuoservizio.conad.it/conadshopstorefront/conad/it/store-finder/?codiceAnacan=006887"}, {"website": "null.003890.html", "distance": "10.15 km", "coop": "PAC", "province": "RM", "name": "Conad", "city": " Roma", "company": "CONAD", "selected": "false", "longitude": 12.6018403843, "order": "https://s2c.altuoservizio.conad.it/003890/", "latitude": 41.9494320313, "storetype": "", "shipment": "https://s2c.altuoservizio.conad.it/003890/", "time": "20 min", "cap": "00131", "data": "Conad", "id": "003890", "address": "Via Poppea Sabina 19, 00131  Roma"}, {"province": "RM", "storetype": "", "city": " Roma", "selected": "false", "id": "005381", "latitude": 41.965165576, "website": "null.005381.html", "coop": "CDT", "opening": "Adesso Aperto", "company": "CONAD", "hours": "08:00 - 20:00", "address": "Via Ipogeo Degli Ottavi 61/79, 00135  Roma", "data": "Conad city", "distance": "10.31 km", "name": "Conad city", "cap": "00135", "longitude": 12.404248165, "time": "20 min", "order": "https://s1a.altuoservizio.conad.it/conadshopstorefront/conad/it/store-finder/?codiceAnacan=005381"}, {"province": "RM", "storetype": "", "city": " Roma", "selected": "false", "id": "005840", "latitude": 41.7871133, "website": "null.005840.html", "coop": "CDT", "opening": "Adesso Aperto", "company": "CONAD", "hours": "08:00 - 21:30", "address": "Via Castel Di Leva 261, 00134  Roma", "data": "Conad", "distance": "12.99 km", "name": "Conad", "cap": "00134", "longitude": 12.5182933, "time": "25 min", "order": "https://s1a.altuoservizio.conad.it/conadshopstorefront/conad/it/store-finder/?codiceAnacan=005840"}, {"province": "RM", "extra": "https://s1b.altuoservizio.conad.it/conadshopstorefront/conad/it/store-finder/?codiceAnacan=007997&extra=true", "storetype": "", "city": "Snc", "selected": "false", "id": "007997", "latitude": 41.9817844, "website": "null.007997.html", "coop": "CDT", "opening": "Adesso Aperto", "company": "CONAD", "hours": "07:30 - 21:30", "address": "Via Nomentana Km. 16,1 Snc, 00012  Guidonia Montecelio", "data": "Conad", "distance": "13.28 km", "name": "Conad", "cap": "Snc", "longitude": 12.6166845, "time": "26 min", "order": "https://s1a.altuoservizio.conad.it/conadshopstorefront/conad/it/store-finder/?codiceAnacan=007997"}, {"website": "null.008216.html", "distance": "14.0 km", "coop": "PAC", "province": "RM", "name": "Conad", "city": " Roma", "company": "CONAD", "selected": "false", "longitude": 12.608773, "order": "https://s2c.altuoservizio.conad.it/008216/", "latitude": 41.808842, "storetype": "", "shipment": "https://s2c.altuoservizio.conad.it/008216/", "time": "28 min", "cap": "00140", "data": "Conad", "id": "008216", "address": "Via Delle Vigne Morena 21-23, 00140  Roma"}, {"province": "RM", "storetype": "", "city": " Roma", "selected": "false", "id": "009740", "shipment": "https://s2c.altuoservizio.conad.it/009740/", "latitude": 41.8105408, "website": "null.009740.html", "coop": "PAC", "opening": "Adesso Aperto", "company": "CONAD", "hours": "8:00  - 22:00", "address": "Via Anagnina 471, 00118  Roma", "data": "Conad", "distance": "14.89 km", "name": "Conad", "cap": "00118", "longitude": 12.6265548, "time": "29 min", "order": "https://s2c.altuoservizio.conad.it/009740/"}, {"province": "RM", "extra": "https://s1b.altuoservizio.conad.it/conadshopstorefront/conad/it/store-finder/?codiceAnacan=008221&extra=true", "storetype": "", "city": " Roma", "selected": "false", "id": "008221", "latitude": 42.0191193, "website": "null.008221.html", "coop": "CDT", "opening": "Adesso Aperto", "company": "CONAD", "hours": "08:00 - 20:00", "address": "Via G. Belardinelli Snc, 00123  Roma", "data": "Conad", "distance": "16.2 km", "name": "Conad", "cap": "00123", "longitude": 12.3785257, "time": "32 min", "order": "https://s1a.altuoservizio.conad.it/conadshopstorefront/conad/it/store-finder/?codiceAnacan=008221"}, {"province": "RM", "storetype": "", "city": " Fonte Nuova", "selected": "false", "id": "009607", "shipment": "https://s2c.altuoservizio.conad.it/009607/", "latitude": 42.001195, "website": "null.009607.html", "coop": "PAC", "opening": "Adesso Aperto", "company": "CONAD", "hours": "08:30 - 20:30", "address": "Via Delle Molette 234, 00013  Fonte Nuova", "data": "Conad", "distance": "17.89 km", "name": "Conad", "cap": "00013", "longitude": 12.667474, "time": "35 min", "order": "https://s2c.altuoservizio.conad.it/009607/"}, {"province": "RM", "extra": "https://s1b.altuoservizio.conad.it/conadshopstorefront/conad/it/store-finder/?codiceAnacan=006525&extra=true", "storetype": "", "city": " Monterotondo", "selected": "false", "id": "006525", "latitude": 42.0578323, "website": "null.006525.html", "coop": "CDT", "opening": "Adesso Aperto", "company": "CONAD", "hours": "08:30 - 20:30", "address": "Via Salaria 223, 00015  Monterotondo", "data": "Conad superstore", "distance": "18.67 km", "name": "Conad superstore", "cap": "00015", "longitude": 12.5827804, "time": "37 min", "order": "https://s1a.altuoservizio.conad.it/conadshopstorefront/conad/it/store-finder/?codiceAnacan=006525"}, {"province": "RM", "storetype": "", "city": " Mentana", "selected": "false", "id": "005122", "latitude": 42.0368489, "website": "null.005122.html", "coop": "CDT", "opening": "Adesso Aperto", "company": "CONAD", "hours": "08:00 - 20:00", "address": "Via Della Rimessa 5, 00013  Mentana", "data": "Conad", "distance": "19.11 km", "name": "Conad", "cap": "00013", "longitude": 12.6408269, "time": "38 min", "order": "https://s1a.altuoservizio.conad.it/conadshopstorefront/conad/it/store-finder/?codiceAnacan=005122"}, {"province": "RM", "storetype": "", "city": " Roma", "selected": "false", "id": "006233", "shipment": "https://s2c.altuoservizio.conad.it/006233/", "latitude": 41.750436, "website": "null.006233.html", "coop": "PAC", "opening": "Adesso Aperto", "company": "CONAD", "hours": "08:30 - 20:00", "address": "Via Di Casal Palocco 124, 00100  Roma", "data": "Conad", "distance": "20.72 km", "name": "Conad", "cap": "00100", "longitude": 12.352521, "time": "41 min", "order": "https://s2c.altuoservizio.conad.it/006233/"}, {"website": "null.008870.html", "distance": "21.26 km", "coop": "PAC", "province": "RM", "name": "Conad", "city": " Roma", "company": "CONAD", "selected": "false", "longitude": 12.3692270288, "order": "https://s2c.altuoservizio.conad.it/008870/", "latitude": 41.7367344481, "storetype": "", "shipment": "https://s2c.altuoservizio.conad.it/008870/", "time": "42 min", "cap": "00100", "data": "Conad", "id": "008870", "address": "Via Pinzolo 2-4-6, 00100  Roma"}, {"province": "RM", "storetype": "", "city": " Albano Laziale", "selected": "false", "id": "002871", "latitude": 41.72495558, "website": "null.002871.html", "coop": "CDT", "opening": "Adesso Aperto", "company": "CONAD", "hours": "08:30 - 21:00", "address": "Via Del Mare 1, 00041  Albano Laziale", "data": "Conad", "distance": "22.18 km", "name": "Conad", "cap": "00041", "longitude": 12.61744008, "time": "44 min", "order": "https://s1a.altuoservizio.conad.it/conadshopstorefront/conad/it/store-finder/?codiceAnacan=002871"}, {"province": "RM", "storetype": "", "city": " Tivoli", "selected": "false", "id": "009556", "shipment": "https://s2c.altuoservizio.conad.it/009556/", "latitude": 41.957759, "website": "null.009556.html", "coop": "PAC", "opening": "Adesso Aperto", "company": "CONAD", "hours": "08:00 - 21:00", "address": "Via Nazionale Tiburtina 1, 00019  Tivoli", "data": "Conad superstore", "distance": "23.73 km", "name": "Conad superstore", "cap": "00019", "longitude": 12.773403, "time": "47 min", "order": "https://s2c.altuoservizio.conad.it/009556/"}, {"province": "RM", "storetype": "", "city": " Mentana", "selected": "false", "id": "003386", "shipment": "https://s2c.altuoservizio.conad.it/003386/", "latitude": 42.057045, "website": "null.003386.html", "coop": "PAC", "opening": "Adesso Aperto", "company": "CONAD", "hours": "08:30 - 20:00", "address": "Via Palombarese 1135, 00013  Mentana", "data": "Conad", "distance": "24.19 km", "name": "Conad", "cap": "00013", "longitude": 12.702518, "time": "48 min", "order": "https://s2c.altuoservizio.conad.it/003386/"}, {"province": "RM", "city": "Fiano Romano", "address": "Via del Capocroce 47 - Fiano Romano(RM)", "latitude": 42.1719129, "longitude": 12.5927265, "company": "", "name": "Conad Fiano Romano", "description": "", "phone": "0765388015"}], "CS": [{"website": "null.007135.html", "distance": "0.85 km", "coop": "PAC", "province": "CS", "name": "Conad", "city": " Cosenza", "company": "CONAD", "selected": "true", "longitude": 16.246742, "order": "https://s2c.altuoservizio.conad.it/007135/", "latitude": 39.303719, "storetype": "", "shipment": "https://s2c.altuoservizio.conad.it/007135/", "time": "1 min", "cap": "87100", "data": "Conad", "id": "007135", "address": "Via Pasquale Rossi 33/a, 87100  Cosenza"}, {"province": "CS", "storetype": "", "city": " Cosenza", "selected": "false", "id": "008357", "shipment": "https://s2c.altuoservizio.conad.it/008357/", "latitude": 39.3058445, "website": "null.008357.html", "coop": "PAC", "opening": "Adesso Aperto", "company": "CONAD", "hours": "08:00 - 13:30<br/>16:30 - 20:00", "address": "Corso Luigi Fera 70, 87100  Cosenza", "data": "Conad", "distance": "0.86 km", "name": "Conad", "cap": "87100", "longitude": 16.2515675, "time": "1 min", "order": "https://s2c.altuoservizio.conad.it/008357/"}, {"province": "CS", "storetype": "", "city": " Cosenza", "selected": "false", "id": "009144", "shipment": "https://s2c.altuoservizio.conad.it/009144/", "latitude": 39.2920745, "website": "null.009144.html", "coop": "PAC", "opening": "Adesso Aperto", "company": "CONAD", "hours": "08:00 - 20:30", "address": "Viale Della Repubblica 77, 87100  Cosenza", "data": "Conad", "distance": "0.87 km", "name": "Conad", "cap": "87100", "longitude": 16.2475076, "time": "1 min", "order": "https://s2c.altuoservizio.conad.it/009144/"}, {"website": "null.007813.html", "distance": "0.97 km", "coop": "PAC", "province": "CS", "name": "Conad", "city": " Cosenza", "company": "CONAD", "selected": "false", "longitude": 16.256706, "order": "https://s2c.altuoservizio.conad.it/007813/", "latitude": 39.306691, "storetype": "", "shipment": "https://s2c.altuoservizio.conad.it/007813/", "time": "1 min", "cap": "87100", "data": "Conad", "id": "007813", "address": "Via Popilia 128/v, 87100  Cosenza"}, {"website": "null.008446.html", "distance": "1.48 km", "coop": "PAC", "province": "CS", "name": "Conad", "city": " Cosenza", "company": "CONAD", "selected": "false", "longitude": 16.2529505, "order": "https://s2c.altuoservizio.conad.it/008446/", "latitude": 39.3115709, "storetype": "", "shipment": "https://s2c.altuoservizio.conad.it/008446/", "time": "2 min", "cap": "87100", "data": "Conad", "id": "008446", "address": "Viale Mancini Snc, 87100  Cosenza"}, {"website": "null.008447.html", "distance": "2.65 km", "coop": "PAC", "province": "CS", "name": "Conad", "city": " Cosenza", "company": "CONAD", "selected": "false", "longitude": 16.2242767, "order": "https://s2c.altuoservizio.conad.it/008447/", "latitude": 39.3053352, "storetype": "", "shipment": "https://s2c.altuoservizio.conad.it/008447/", "time": "5 min", "cap": "87100", "data": "Conad", "id": "008447", "address": "Via Metaponto 7, 87100  Cosenza"}, {"website": "null.009921.html", "distance": "2.97 km", "coop": "PAC", "province": "CS", "name": "Conad", "city": " Cosenza", "company": "CONAD", "selected": "false", "longitude": 16.256196, "order": "https://s2c.altuoservizio.conad.it/009921/", "latitude": 39.324861, "storetype": "", "shipment": "https://s2c.altuoservizio.conad.it/009921/", "time": "5 min", "cap": "87100", "data": "Conad", "id": "009921", "address": "Viale Crati Ss 107 Snc, 87100  Cosenza"}, {"province": "CS", "storetype": "", "city": " Rende", "selected": "false", "id": "006286", "shipment": "https://s2c.altuoservizio.conad.it/006286/", "latitude": 39.3398539, "website": "null.006286.html", "coop": "PAC", "opening": "Adesso Aperto", "company": "CONAD", "parafarmacia": "true", "address": "Via Giuseppe Verdi 40, 87036  Rende", "data": "Conad", "distance": "4.68 km", "name": "Conad", "cap": "87036", "hours": "08:30 - 20:30", "longitude": 16.2453251, "time": "9 min", "order": "https://s2c.altuoservizio.conad.it/006286/"}, {"province": "CS", "storetype": "", "city": " Montalto Uffugo", "selected": "false", "id": "009028", "shipment": "https://s2c.altuoservizio.conad.it/009028/", "latitude": 39.388343, "website": "null.009028.html", "coop": "PAC", "opening": "Adesso Aperto", "company": "CONAD", "hours": "08:00 - 20:30", "address": "Via Trieste Snc, 87046  Montalto Uffugo", "data": "Conad", "distance": "10.12 km", "name": "Conad", "cap": "87046", "longitude": 16.237077, "time": "20 min", "order": "https://s2c.altuoservizio.conad.it/009028/"}, {"province": "CS", "storetype": "", "city": " Montalto Uffugo", "selected": "false", "id": "007417", "shipment": "https://s2c.altuoservizio.conad.it/007417/", "latitude": 39.4268440409, "website": "null.007417.html", "coop": "PAC", "opening": "Adesso Aperto", "company": "CONAD", "hours": "08:00 - 20:30", "address": "Corso Italia 1, 87040  Montalto Uffugo", "data": "Conad", "distance": "14.37 km", "name": "Conad", "cap": "87040", "longitude": 16.2380194478, "time": "28 min", "order": "https://s2c.altuoservizio.conad.it/007417/"}, {"province": "CS", "storetype": "", "city": " Montalto Uffugo", "selected": "false", "id": "006998", "shipment": "https://s2c.altuoservizio.conad.it/006998/", "latitude": 39.4030048, "website": "null.006998.html", "coop": "PAC", "opening": "Adesso Aperto", "company": "CONAD", "hours": "08:00 - 20:30", "address": "Via Aldo Moro 9, 87046  Montalto Uffugo", "data": "Conad", "distance": "14.4 km", "name": "Conad", "cap": "87046", "longitude": 16.1553242, "time": "28 min", "order": "https://s2c.altuoservizio.conad.it/006998/"}, {"province": "CS", "storetype": "", "city": "42", "selected": "false", "id": "005236", "shipment": "https://s2c.altuoservizio.conad.it/005236/", "latitude": 39.4297456, "website": "null.005236.html", "coop": "PAC", "opening": "Adesso Aperto", "company": "CONAD", "hours": "09:00 - 14:00<br/>16:00 - 20:00", "address": "Via A. Manzoni, 42, 87040  Montalto Uffugo", "data": "Conad", "distance": "14.82 km", "name": "Conad", "cap": "42", "longitude": 16.2255096, "time": "29 min", "order": "https://s2c.altuoservizio.conad.it/005236/"}, {"province": "CS", "storetype": "", "city": " Torano Castello", "selected": "false", "id": "006284", "shipment": "https://s2c.altuoservizio.conad.it/006284/", "latitude": 39.5083186124, "website": "null.006284.html", "coop": "PAC", "opening": "Adesso Aperto", "company": "CONAD", "hours": "08:00 - 13:30<br/>16:30 - 20:30", "address": "Contrada Macchia Tavola Snc, 87010  Torano Castello", "data": "Conad", "distance": "23.63 km", "name": "Conad", "cap": "87010", "longitude": 16.2125261407, "time": "47 min", "order": "https://s2c.altuoservizio.conad.it/006284/"}], "SA": [{"province": "SA", "storetype": "", "city": " Salerno", "selected": "true", "id": "009418", "shipment": "https://s2c.altuoservizio.conad.it/009418/", "latitude": 40.6997364, "website": "null.009418.html", "coop": "PAC", "opening": "Adesso Aperto", "company": "CONAD", "hours": "09:00 - 21:00", "address": "Via Dei Greci 5, 84135  Salerno", "data": "Conad superstore", "distance": "2.04 km", "name": "Conad superstore", "cap": "84135", "longitude": 14.776266, "time": "4 min", "order": "https://s2c.altuoservizio.conad.it/009418/"}, {"province": "SA", "storetype": "", "city": " Cava De' Tirreni", "selected": "false", "id": "008434", "shipment": "https://s2c.altuoservizio.conad.it/008434/", "latitude": 40.7122456258, "website": "null.008434.html", "coop": "PAC", "opening": "Adesso Aperto", "company": "CONAD", "parafarmacia": "true", "address": "Viale R. Romano 32, 84013  Cava De' Tirreni", "data": "Conad superstore", "distance": "6.51 km", "name": "Conad superstore", "cap": "84013", "hours": "07:30 - 21:00", "longitude": 14.7016076296, "time": "13 min", "order": "https://s2c.altuoservizio.conad.it/008434/"}, {"website": "null.008222.html", "distance": "7.34 km", "coop": "PAC", "province": "SA", "name": "Conad", "city": " Baronissi", "company": "CONAD", "selected": "false", "longitude": 14.76981855, "order": "https://s2c.altuoservizio.conad.it/008222/", "latitude": 40.74837794, "storetype": "", "shipment": "https://s2c.altuoservizio.conad.it/008222/", "time": "14 min", "cap": "84081", "data": "Conad", "id": "008222", "address": "Corso Garibaldi 209, 84081  Baronissi"}, {"province": "SA", "storetype": "", "city": " Salerno", "selected": "false", "id": "008319", "shipment": "https://s2c.altuoservizio.conad.it/008319/", "latitude": 40.6490392238, "website": "null.008319.html", "coop": "PAC", "opening": "Adesso Aperto", "company": "CONAD", "hours": "08:00 - 21:00", "address": "Via Delle Calabrie 4, 84131  Salerno", "data": "Conad superstore", "distance": "7.95 km", "name": "Conad superstore", "cap": "84131", "longitude": 14.8513349053, "time": "15 min", "order": "https://s2c.altuoservizio.conad.it/008319/"}, {"province": "SA", "storetype": "", "city": " Fisciano", "selected": "false", "id": "006487", "shipment": "https://s2c.altuoservizio.conad.it/006487/", "latitude": 40.7638623706, "website": "null.006487.html", "coop": "PAC", "opening": "Chiuso", "company": "CONAD", "hours": "08:00 - 13:30<br/>16:30 - 20:30", "address": "Via Del Centenario 67, 84080  Fisciano", "data": "Conad city", "distance": "9.14 km", "name": "Conad city", "cap": "84080", "longitude": 14.7828302812, "time": "18 min", "order": "https://s2c.altuoservizio.conad.it/006487/"}, {"website": "null.008169.html", "distance": "9.69 km", "coop": "PAC", "province": "SA", "name": "Conad", "city": " Pontecagnano Faiano", "company": "CONAD", "selected": "false", "longitude": 14.8717055, "order": "https://s2c.altuoservizio.conad.it/008169/", "latitude": 40.6447757, "storetype": "", "shipment": "https://s2c.altuoservizio.conad.it/008169/", "time": "19 min", "cap": "84098", "data": "Conad", "id": "008169", "address": "Via Giacomo Budetti 82, 84098  Pontecagnano Faiano"}, {"province": "SA", "storetype": "", "city": " Pontecagnano Faiano", "selected": "false", "id": "008213", "shipment": "https://s2c.altuoservizio.conad.it/008213/", "latitude": 40.6398637221, "website": "null.008213.html", "coop": "PAC", "opening": "Adesso Aperto", "company": "CONAD", "hours": "08:00 - 20:30", "address": "Via Lucania 13, 84098  Pontecagnano Faiano", "data": "Conad superstore", "distance": "10.36 km", "name": "Conad superstore", "cap": "84098", "longitude": 14.8773275223, "time": "20 min", "order": "https://s2c.altuoservizio.conad.it/008213/"}, {"province": "SA", "storetype": "", "city": " Nocera Inferiore", "selected": "false", "id": "007176", "shipment": "https://s2c.altuoservizio.conad.it/007176/", "latitude": 40.7461284427, "website": "null.007176.html", "coop": "PAC", "opening": "Adesso Aperto", "company": "CONAD", "hours": "07:30 - 21:00", "address": "Via G.b.castaldo 51, 84014  Nocera Inferiore", "data": "Conad superstore", "distance": "12.48 km", "name": "Conad superstore", "cap": "84014", "longitude": 14.6461796947, "time": "24 min", "order": "https://s2c.altuoservizio.conad.it/007176/"}, {"province": "SA", "storetype": "", "city": " Pagani", "selected": "false", "id": "006451", "shipment": "https://s2c.altuoservizio.conad.it/006451/", "latitude": 40.7483669976, "website": "null.006451.html", "coop": "PAC", "opening": "Adesso Aperto", "company": "CONAD", "hours": "09:00 - 21:00", "address": "Via De Gasperi 340, 84016  Pagani", "data": "Conad superstore", "distance": "16.01 km", "name": "Conad superstore", "cap": "84016", "longitude": 14.5993077569, "time": "32 min", "order": "https://s2c.altuoservizio.conad.it/006451/"}, {"province": "SA", "storetype": "", "city": " Battipaglia", "selected": "false", "id": "008219", "shipment": "https://s2c.altuoservizio.conad.it/008219/", "latitude": 40.6083083162, "website": "null.008219.html", "coop": "PAC", "opening": "Adesso Aperto", "company": "CONAD", "hours": "08:00 - 20:30", "address": "Via Stella 124, 84091  Battipaglia", "data": "Conad superstore", "distance": "19.38 km", "name": "Conad superstore", "cap": "84091", "longitude": 14.9759040729, "time": "38 min", "order": "https://s2c.altuoservizio.conad.it/008219/"}, {"website": "null.009331.html", "distance": "19.48 km", "coop": "PAC", "province": "SA", "name": "Conad", "city": " Sarno", "company": "CONAD", "selected": "false", "longitude": 14.6174026, "order": "https://s2c.altuoservizio.conad.it/009331/", "latitude": 40.8152664, "storetype": "", "shipment": "https://s2c.altuoservizio.conad.it/009331/", "time": "38 min", "cap": "84087", "data": "Conad", "id": "009331", "address": "Piazza Garibaldi Snc, 84087  Sarno"}, {"province": "SA", "storetype": "", "city": " Sant'antonio Abate", "selected": "false", "id": "002417", "shipment": "https://s2c.altuoservizio.conad.it/002417/", "latitude": 40.7348252, "website": "null.002417.html", "coop": "PAC", "opening": "Adesso Aperto", "company": "CONAD", "hours": "08:00 - 13:30<br/>16:00 - 20:30", "address": "Via Scafati 338, 80057  Sant'antonio Abate", "data": "Conad", "distance": "20.43 km", "name": "Conad", "cap": "80057", "longitude": 14.5358963, "time": "40 min", "order": "https://s2c.altuoservizio.conad.it/002417/"}, {"province": "SA", "storetype": "", "city": " Pompei", "selected": "false", "id": "008591", "shipment": "https://s2c.altuoservizio.conad.it/008591/", "latitude": 40.741392, "website": "null.008591.html", "coop": "PAC", "opening": "Adesso Aperto", "company": "CONAD", "parafarmacia": "true", "address": "Via Macello 22, 80045  Pompei", "data": "Conad superstore", "distance": "23.28 km", "name": "Conad superstore", "cap": "80045", "hours": "09:00 - 22:00", "longitude": 14.5031838, "time": "46 min", "order": "https://s2c.altuoservizio.conad.it/008591/"}], "PI": [{"province": "PI", "storetype": "", "city": " Pisa", "selected": "true", "id": "009203", "latitude": 43.7121014, "website": "null.009203.html", "coop": "CDT", "opening": "Adesso Aperto", "company": "CONAD", "hours": "08:00 - 20:30", "address": "Via San Giuseppe Cottolengo 5, 56125  Pisa", "data": "Conad city", "distance": "1.21 km", "name": "Conad city", "cap": "56125", "longitude": 10.3994495, "time": "2 min", "order": "https://s1a.altuoservizio.conad.it/conadshopstorefront/conad/it/store-finder/?codiceAnacan=009203"}, {"province": "PI", "storetype": "", "city": " Pisa", "selected": "false", "id": "000795", "latitude": 43.71064502, "website": "null.000795.html", "coop": "CDT", "opening": "Adesso Aperto", "company": "CONAD", "hours": "08:00 - 20:00", "address": "Piazza Giovanni XXIII Snc, 56122  Pisa", "data": "Conad city", "distance": "2.8 km", "name": "Conad city", "cap": "56122", "longitude": 10.37123397, "time": "5 min", "order": "https://s1a.altuoservizio.conad.it/conadshopstorefront/conad/it/store-finder/?codiceAnacan=000795"}, {"province": "PI", "extra": "https://s1b.altuoservizio.conad.it/conadshopstorefront/conad/it/store-finder/?codiceAnacan=003699&extra=true", "storetype": "", "city": " San Giuliano Terme", "selected": "false", "id": "003699", "shipment": "https://s1c.altuoservizio.conad.it/conadshopstorefront/conad/it/store-finder/?codiceAnacan=003699", "latitude": 43.7414772, "website": "null.003699.html", "coop": "CDT", "opening": "Adesso Aperto", "company": "CONAD", "parafarmacia": "true", "address": "Via Pietrasantina 31, 56017  San Giuliano Terme", "data": "Conad superstore", "distance": "2.97 km", "name": "Conad superstore", "cap": "56017", "hours": "08:00 - 21:00", "longitude": 10.3751532, "time": "5 min", "order": "https://s1a.altuoservizio.conad.it/conadshopstorefront/conad/it/store-finder/?codiceAnacan=003699"}, {"province": "PI", "extra": "https://s1b.altuoservizio.conad.it/conadshopstorefront/conad/it/store-finder/?codiceAnacan=003698&extra=true", "storetype": "", "city": " San Giuliano Terme", "selected": "false", "id": "003698", "latitude": 43.7773635099, "website": "null.003698.html", "coop": "CDT", "opening": "Adesso Aperto", "company": "CONAD", "hours": "08:00 - 20:00", "address": "Via Brodolini 20, 56010  San Giuliano Terme", "data": "Conad", "distance": "6.15 km", "name": "Conad", "cap": "56010", "longitude": 10.4144582804, "time": "12 min", "order": "https://s1a.altuoservizio.conad.it/conadshopstorefront/conad/it/store-finder/?codiceAnacan=003698"}, {"province": "PI", "storetype": "", "city": " Cascina", "selected": "false", "id": "006328", "latitude": 43.6786632892, "website": "null.006328.html", "coop": "CDT", "opening": "Adesso Aperto", "company": "CONAD", "hours": "08:00 - 20:00", "address": "Via Generale Carlo Alberto Dalla Chiesa 1/a, 56021  Cascina", "data": "Conad city", "distance": "10.38 km", "name": "Conad city", "cap": "56021", "longitude": 10.5153958406, "time": "20 min", "order": "https://s1a.altuoservizio.conad.it/conadshopstorefront/conad/it/store-finder/?codiceAnacan=006328"}, {"province": "PI", "storetype": "", "city": " Pisa", "selected": "false", "id": "003697", "latitude": 43.676198, "website": "null.003697.html", "coop": "CDT", "opening": "Adesso Aperto", "company": "CONAD", "hours": "08:00 - 20:00", "address": "Via Maiorca 39, 56013  Pisa", "data": "Conad city", "distance": "11.51 km", "name": "Conad city", "cap": "56013", "longitude": 10.273954, "time": "23 min", "order": "https://s1a.altuoservizio.conad.it/conadshopstorefront/conad/it/store-finder/?codiceAnacan=003697"}, {"province": "PI", "extra": "https://s1b.altuoservizio.conad.it/conadshopstorefront/conad/it/store-finder/?codiceAnacan=009528&extra=true", "storetype": "", "city": " Cascina", "selected": "false", "id": "009528", "latitude": 43.676187, "website": "null.009528.html", "coop": "CDT", "opening": "Adesso Aperto", "company": "CONAD", "hours": "08:00 - 20:30", "address": "Via Tosco Romagnola Snc, 56021  Cascina", "data": "Conad", "distance": "13.15 km", "name": "Conad", "cap": "56021", "longitude": 10.551885, "time": "26 min", "order": "https://s1a.altuoservizio.conad.it/conadshopstorefront/conad/it/store-finder/?codiceAnacan=009528"}, {"province": "PI", "storetype": "", "city": " Pisa", "selected": "false", "id": "002519", "latitude": 43.61977217, "website": "null.002519.html", "coop": "CDT", "opening": "Adesso Aperto", "company": "CONAD", "hours": "08:00 - 20:00", "address": "Via Del Tirreno 215, 56018  Pisa", "data": "Conad city", "distance": "14.48 km", "name": "Conad city", "cap": "56018", "longitude": 10.29170502, "time": "28 min", "order": "https://s1a.altuoservizio.conad.it/conadshopstorefront/conad/it/store-finder/?codiceAnacan=002519"}, {"province": "PI", "extra": "https://s1b.altuoservizio.conad.it/conadshopstorefront/conad/it/store-finder/?codiceAnacan=008788&extra=true", "storetype": "", "city": " Lucca", "selected": "false", "id": "008788", "latitude": 43.842420264, "website": "null.008788.html", "coop": "CDT", "opening": "Adesso Aperto", "company": "CONAD", "hours": "08:00 - 20:30", "address": "Via Einaudi Snc, 55100  Lucca", "data": "Conad", "distance": "14.6 km", "name": "Conad", "cap": "55100", "longitude": 10.4766451768, "time": "29 min", "order": "https://s1a.altuoservizio.conad.it/conadshopstorefront/conad/it/store-finder/?codiceAnacan=008788"}, {"province": "PI", "storetype": "", "city": " Collesalvetti", "selected": "false", "id": "000802", "latitude": 43.59160215, "website": "null.000802.html", "coop": "CDT", "opening": "Adesso Aperto", "company": "CONAD", "hours": "08:00 - 20:00", "address": "Via C. Marx 27, 57014  Collesalvetti", "data": "Conad", "distance": "15.13 km", "name": "Conad", "cap": "57014", "longitude": 10.35220437, "time": "30 min", "order": "https://s1a.altuoservizio.conad.it/conadshopstorefront/conad/it/store-finder/?codiceAnacan=000802"}, {"province": "PI", "storetype": "", "city": " Collesalvetti", "selected": "false", "id": "000804", "latitude": 43.59385297, "website": "null.000804.html", "coop": "CDT", "opening": "Adesso Aperto", "company": "CONAD", "hours": "08:00 - 20:00", "address": "Via Dell'impresa 14, 57014  Collesalvetti", "data": "Conad", "distance": "15.4 km", "name": "Conad", "cap": "57014", "longitude": 10.47114535, "time": "30 min", "order": "https://s1a.altuoservizio.conad.it/conadshopstorefront/conad/it/store-finder/?codiceAnacan=000804"}, {"province": "PI", "extra": "https://s1b.altuoservizio.conad.it/conadshopstorefront/conad/it/store-finder/?codiceAnacan=008996&extra=true", "storetype": "", "city": " Lucca", "selected": "false", "id": "008996", "latitude": 43.8405555, "website": "null.008996.html", "coop": "CDT", "opening": "Adesso Aperto", "company": "CONAD", "hours": "08:00 - 20:30", "address": "Via Di Tiglio 1075, 55100  Lucca", "data": "Conad", "distance": "16.52 km", "name": "Conad", "cap": "55100", "longitude": 10.5271097, "time": "33 min", "order": "https://s1a.altuoservizio.conad.it/conadshopstorefront/conad/it/store-finder/?codiceAnacan=008996"}, {"province": "PI", "extra": "https://s1b.altuoservizio.conad.it/conadshopstorefront/conad/it/store-finder/?codiceAnacan=000824&extra=true", "storetype": "", "city": " Massarosa", "selected": "false", "id": "000824", "latitude": 43.879026, "website": "null.000824.html", "coop": "CDT", "opening": "Adesso Aperto", "company": "CONAD", "hours": "08:00 - 20:00", "address": "Via Sarzanese Snc, 55054  Massarosa", "data": "Conad", "distance": "18.36 km", "name": "Conad", "cap": "55054", "longitude": 10.32785033, "time": "36 min", "order": "https://s1a.altuoservizio.conad.it/conadshopstorefront/conad/it/store-finder/?codiceAnacan=000824"}, {"province": "PI", "extra": "https://s1b.altuoservizio.conad.it/conadshopstorefront/conad/it/store-finder/?codiceAnacan=004841&extra=true", "storetype": "", "city": " Livorno", "selected": "false", "id": "004841", "latitude": 43.5632399982, "website": "null.004841.html", "coop": "CDT", "opening": "Adesso Aperto", "company": "CONAD", "hours": "08:00 - 20:00", "address": "Via Dell'antimonio 4/8, 57017  Livorno", "data": "Conad", "distance": "18.84 km", "name": "Conad", "cap": "57017", "longitude": 10.3234557901, "time": "37 min", "order": "https://s1a.altuoservizio.conad.it/conadshopstorefront/conad/it/store-finder/?codiceAnacan=004841"}, {"province": "PI", "extra": "https://s1b.altuoservizio.conad.it/conadshopstorefront/conad/it/store-finder/?codiceAnacan=009522&extra=true", "storetype": "", "city": " Viareggio", "selected": "false", "id": "009522", "latitude": 43.865744, "website": "null.009522.html", "coop": "CDT", "opening": "Adesso Aperto", "company": "CONAD", "hours": "08:00 - 20:30", "address": "Via Pisana Snc, 55049  Viareggio", "data": "Conad", "distance": "19.61 km", "name": "Conad", "cap": "55049", "longitude": 10.258671, "time": "39 min", "order": "https://s1a.altuoservizio.conad.it/conadshopstorefront/conad/it/store-finder/?codiceAnacan=009522"}, {"province": "PI", "storetype": "", "city": " Pontedera", "selected": "false", "id": "006506", "latitude": 43.66359, "website": "null.006506.html", "coop": "CDT", "opening": "Adesso Aperto", "company": "CONAD", "hours": "08:00 - 20:00", "address": "Via XII Aprile 12, 56025  Pontedera", "data": "Conad city", "distance": "19.69 km", "name": "Conad city", "cap": "56025", "longitude": 10.6324471, "time": "39 min", "order": "https://s1a.altuoservizio.conad.it/conadshopstorefront/conad/it/store-finder/?codiceAnacan=006506"}, {"province": "PI", "storetype": "", "city": " Livorno", "selected": "false", "id": "006504", "latitude": 43.5513537089, "website": "null.006504.html", "coop": "CDT", "opening": "Adesso Aperto", "company": "CONAD", "hours": "08:00 - 20:00", "address": "Via Padre Alessandro Baroni 9/15, 57124  Livorno", "data": "Conad city", "distance": "19.87 km", "name": "Conad city", "cap": "57124", "longitude": 10.3326128941, "time": "39 min", "order": "https://s1a.altuoservizio.conad.it/conadshopstorefront/conad/it/store-finder/?codiceAnacan=006504"}, {"province": "PI", "storetype": "", "city": " Livorno", "selected": "false", "id": "008697", "latitude": 43.5500770994, "website": "null.008697.html", "coop": "CDT", "opening": "Adesso Aperto", "company": "CONAD", "hours": "08:00 - 20:00", "address": "Via Grande 166, 57100  Livorno", "data": "Conad", "distance": "20.69 km", "name": "Conad", "cap": "57100", "longitude": 10.3064563684, "time": "41 min", "order": "https://s1a.altuoservizio.conad.it/conadshopstorefront/conad/it/store-finder/?codiceAnacan=008697"}, {"province": "PI", "storetype": "", "city": " Viareggio", "selected": "false", "id": "003692", "latitude": 43.8783560118, "website": "null.003692.html", "coop": "CDT", "opening": "Adesso Aperto", "company": "CONAD", "hours": "08:00 - 20:00", "address": "Via Ciabattini Ottorino 55, 55049  Viareggio", "data": "Conad", "distance": "20.93 km", "name": "Conad", "cap": "55049", "longitude": 10.2548424049, "time": "41 min", "order": "https://s1a.altuoservizio.conad.it/conadshopstorefront/conad/it/store-finder/?codiceAnacan=003692"}, {"province": "PI", "storetype": "", "city": " Livorno", "selected": "false", "id": "003696", "latitude": 43.5382398871, "website": "null.003696.html", "coop": "CDT", "opening": "Adesso Aperto", "company": "CONAD", "hours": "08:00 - 20:00", "address": "Via Antonio Gramsci 178, 57125  Livorno", "data": "Conad city", "distance": "21.7 km", "name": "Conad city", "cap": "57125", "longitude": 10.3144515878, "time": "43 min", "order": "https://s1a.altuoservizio.conad.it/conadshopstorefront/conad/it/store-finder/?codiceAnacan=003696"}, {"province": "PI", "storetype": "", "city": " Casciana Terme Lari", "selected": "false", "id": "000808", "latitude": 43.58293263, "website": "null.000808.html", "coop": "CDT", "opening": "Adesso Aperto", "company": "CONAD", "hours": "07:30 - 20:00", "address": "Via Provinciale Del Commercio 48/a1, 56035  Casciana Terme Lari", "data": "Conad", "distance": "24.02 km", "name": "Conad", "cap": "56035", "longitude": 10.62911321, "time": "48 min", "order": "https://s1a.altuoservizio.conad.it/conadshopstorefront/conad/it/store-finder/?codiceAnacan=000808"}, {"province": "PI", "storetype": "", "city": " Livorno", "selected": "false", "id": "000798", "latitude": 43.50687528, "website": "null.000798.html", "coop": "CDT", "opening": "Adesso Aperto", "company": "CONAD", "hours": "08:30 - 19:30", "address": "Via Carlo Puini 97, 57128  Livorno", "data": "Conad city", "distance": "24.86 km", "name": "Conad city", "cap": "57128", "longitude": 10.32232723, "time": "49 min", "order": "https://s1a.altuoservizio.conad.it/conadshopstorefront/conad/it/store-finder/?codiceAnacan=000798"}], "RI": [{"province": "RI", "storetype": "", "city": " Rieti", "selected": "true", "id": "006961", "shipment": "https://s2c.altuoservizio.conad.it/006961/", "latitude": 42.4033526145, "website": "null.006961.html", "coop": "PAC", "opening": "Adesso Aperto", "company": "CONAD", "hours": "09:00 - 20:30", "address": "Via Fundania/via Mercatanti Snc, 02100  Rieti", "data": "Conad superstore", "distance": "0.33 km", "name": "Conad superstore", "cap": "02100", "longitude": 12.8529814817, "time": "0 min", "order": "https://s2c.altuoservizio.conad.it/006961/"}, {"province": "RI", "storetype": "", "city": " Terni", "selected": "false", "id": "000152", "shipment": "https://s2c.altuoservizio.conad.it/000152/", "latitude": 42.5605524475, "website": "null.000152.html", "coop": "PAC", "opening": "Adesso Aperto", "company": "CONAD", "hours": "08:00 - 20:00", "address": "Via Donatori Di Organi 10, 05100  Terni", "data": "Conad superstore", "distance": "24.43 km", "name": "Conad superstore", "cap": "05100", "longitude": 12.6471642032, "time": "48 min", "order": "https://s2c.altuoservizio.conad.it/000152/"}], "TA": [{"province": "TA", "city": "Statte", "address": "Via Teatro Massimo Ed.C - Statte(TA)", "latitude": 40.563225, "longitude": 17.209799, "company": "", "name": "GM Distribuzione", "description": "Vendita all\u2019ingrosso e dettaglio con consegna a domicilio di prodotti alimentari, igiene personale ecc.", "phone": "3481688979"}], "LI": [{"province": "LI", "city": "San Vincenzo", "address": "via Matteotti 67/69 - San Vincenzo(LI)", "latitude": 43.1006951, "longitude": 10.5387914, "company": "", "name": "alla Corte di Bacco", "description": "Effettuiamo servizio di consegna a domicilio di alimenti e bevande", "shipment": "mailto:cortedibacco2018@gmail.com", "phone": "0565702335"}], "PR": [{"province": "PR", "city": "Felino", "address": "Largo Brigate Alpine, 7 - Felino(PR)", "latitude": 44.6965871, "longitude": 10.2372047, "company": "", "name": "Verdi SNC", "description": "Prodotti per la pulizia industriale e della casa, materiale informatico, scolastico, carta e cancelleria", "shipment": "mailto:info@verdi.biz", "phone": "0521833037"}], "CT": [{"province": "CT", "city": "Misterbianco", "address": "C.so Carlo Marx 76 - Misterbianco(CT)", "latitude": 37.5191722, "longitude": 15.0079363, "company": "", "name": "Brasilrecca spa", "description": "Torrefazione siciliana, vendita di caff\u00e8 in grani, macinato, cialde, capsule compatibili.", "shipment": "mailto:store@brasilrecca.com", "phone": "+39095476754"}]}